$GPZDA,145917.00,28,02,2015,-01,00*4B
$GPDTM,W84,,0.0,N,0.0,E,+0.0,W84*44
$AGRSA,1.1,A,,V*7F
$HEHDT,084.2,T*21
$HEROT,-000.1,A*07
$SDDPT,,0.0,20.0*49
$RATTM,08,17.39,52.30,T,16.8,77.0,T,16.99,84.80,N,,T,,145924.00,M*08
$BNALR,144707.60,000,V,A,c1=MAN;c2=746;c3=1*59
$AGRSA,1.2,A,,V*7C
$VDVBW,016.96,,A,018.50,-000.23,A,,V,-000.20,A*41
$ERALR,144707.64,004,V,A,004*5E
$WIMWV,342.6,R,9.3,M,A*29
$IIHTC,V,1.3,R,S,N,15.0,10.0,,,84.2,0.50,,T*1C
$ERALR,150049.26,A01.04,V,A,A01.04*50
$ERALR,150049.26,T16.01,V,A,T16.01*50
$GPGGA,145916.48,3647.2990,N,00155.0251,E,2,08,01,+0048,M,+046,M,10,0520*41
$AGHTD,V,1.3,R,S,N,15.0,10.0,0.000,0.0,84.0,0.000,0.0,T,A,A,,84.2*14
$VRXDR,G,0.00,P,00,G,0.00,P,01,G,0.00,P,02,G,0.00,P,03*4A
$VRXDR,G,,P,04,G,,P,05,G,,P,06,G,,P,07*4A
$AGRSA,1.2,A,,V*7C
$ERALR,150049.51,Z-BS-019,V,A,Z-BS-019*50
!AIVDO,1,1,,,1815?pP02qP8iWHE3>VCA2`N05kd,0*10
$GPVTG,083.7,T,083.7,M,018.4,N,034.1,K,D*2D
$ERALR,150049.51,W030.04,V,A,W030.04*50
$ERALR,DMAN_ON,0,V,A*37
!AIVDM,1,1,,A,1815@5@01j08?a0E6POb:H8R8L0>,0*7F
$ERALR,144708.15,005,V,A,005*57
$ERALR,150049.51,Z11.13,V,A,Z11.13*50
$ERALR,145854.53,SHD CANCELED,V,A,SHD CANCELED*52
$ERALR,150049.51,Z11.26,V,A,Z11.26*50
$GPZDA,145918.00,28,02,2015,-01,00*44
$GPDTM,W84,,0.0,N,0.0,E,+0.0,W84*44
$KMPRC,76.0,A,60.0,R,0.0,V,B,0*59
$KMRPM,E,0,59.8,0.0,A*65
$HEHDT,084.2,T*21
$HEROT,-000.1,A*07
$SDDPT,,0.0,20.0*49
$AGRSA,1.2,A,,V*7C
$BNALR,144708.63,000,V,A,c1=MAN;c2=746;c3=1*55
$VDVBW,016.97,,A,018.40,-000.24,A,,V,-000.22,A*44
$ERALR,144708.66,001,V,A,001*53
!AIVDM,1,1,,B,1815?w01B308or:E5vuS42Mp0l0D,0*0C
$IIHTC,V,1.3,R,S,N,15.0,10.0,,,84.2,0.50,,T*1C
$WIMWV,343.0,R,9.6,M,A*2B
$ERALR,150050.27,A01.05,V,A,A01.05*59
$ERALR,150050.27,S01,V,A,S01*59
$AGRSA,1.2,A,,V*7C
$GPGGA,145917.48,3647.2996,N,00155.0315,E,2,08,01,+0048,M,+046,M,09,0520*4F
$VRXDR,G,0.00,P,00,G,0.00,P,01,G,0.00,P,02,G,0.00,P,03*4A
$VRXDR,G,,P,04,G,,P,05,G,,P,06,G,,P,07*4A
$AGHTD,V,1.3,R,S,N,15.0,10.0,0.000,0.0,84.0,0.000,0.0,T,A,A,,84.2*14
$ERALR,150050.52,Z-BS-020,V,A,Z-BS-020*5B
$GPVTG,083.7,T,083.7,M,018.5,N,034.2,K,D*2F
!AIVDO,1,1,,,1815?pP02qP8iaFE3>WSAB`P05kd,0*57
!AIVDM,1,1,,A,13lde:001S09I`dE:2`b9ot`0D0D,0*58
$ERALR,150050.52,W070,V,A,W070*5B
$ERALR,DMAN_RESET,0,V,A*63
$ERALR,150050.52,Z11.01,V,A,Z11.01*5B
$ERALR,144709.18,002,V,A,002*5B
$ERALR,150050.52,Z11.14,V,A,Z11.14*5B
$GPZDA,145919.00,28,02,2015,-01,00*45
$GPDTM,W84,,0.0,N,0.0,E,+0.0,W84*44
$ERALR,145855.59,SLD CANCELED,V,A,SLD CANCELED*59
$AGRSA,1.2,A,,V*7C
$HEHDT,084.1,T*22
$HEROT,-000.7,A*01
$KMPRC,76.0,A,60.0,R,0.0,V,B,0*59
$KMRPM,E,0,59.8,0.0,A*65
$SDDPT,,0.0,20.0*49
$PJRCD,RA,15,1,,,,,,,,,,,,,,,,,,,,,,,,,,,*69
$RATTM,08,17.39,52.22,T,16.8,77.0,T,17.00,84.29,N,,T,,145926.00,M*0B
$PJRCL,RA,9,V,V,V,V,V,V,V,V,V,V,V,V,V,V,V,V,V,V,V,V,V,V,V,V,V,V,V,V,V,V,V,*3B
$AGRSA,1.3,A,,V*7D
$BNALR,144709.65,000,V,A,c1=MAN;c2=745;c3=1*51
$VDVBW,016.97,,A,018.40,-000.25,A,,V,-000.23,A*44
$IIHTC,V,1.3,R,S,N,15.0,10.0,,,84.1,0.50,,T*1F
$WIMWV,342.9,R,9.6,M,A*23
$ERALR,144709.69,003,V,A,003*5D
$PJRCL,RA,90,V,V,,,,,V,V,V,V,V,V,V,V,V,,,,,,,,,,,,,,,,,*0B
$PJRCL,RA,18,0,1,M,12,L1,H,R,3,3,1,0,6E,24,M,0A,M,01,A,,,*1C
$ERALR,150051.29,A01.06,V,A,A01.06*56
$ERALR,150051.29,S02,V,A,S02*56
$GPGGA,145918.48,3647.3001,N,00155.0379,E,2,08,01,+0048,M,+046,M,10,0520*44
!AIVDM,1,1,,A,14`VuH001q07;HRE>UIcD`tb0<0L,0*08
$AGHTD,V,1.3,R,S,N,15.0,10.0,0.000,0.0,84.0,0.000,0.0,T,A,A,,84.1*17
$VRXDR,G,0.00,P,00,G,0.00,P,01,G,0.00,P,02,G,0.00,P,03*4A
$VRXDR,G,,P,04,G,,P,05,G,,P,06,G,,P,07*4A
$AGRSA,1.3,A,,V*7D
!AIVDM,1,1,,B,19NWtKP02iP7nw`E4d13C2Rb0<0I,0*0D
$ERALR,150051.54,Z-BS-021,V,A,Z-BS-021*5C
$GPVTG,083.7,T,083.7,M,018.5,N,034.3,K,D*2E
!AIVDO,1,1,,,1815?pP02pP8icFE3>a3AB`R05kd,0*00
$ERALR,150051.54,W046.02,V,A,W046.02*5C
$ERALR,DMAN_PRE,0,V,A*71
$ERALR,150051.54,Z11.02,V,A,Z11.02*5C
$ERALR,144710.20,004,V,A,004*58
$GPZDA,145920.00,28,02,2015,-01,00*4F
$GPDTM,W84,,0.0,N,0.0,E,+0.0,W84*44
$ERALR,150051.54,Z11.15,V,A,Z11.15*5C
$HEHDT,084.1,T*22
$HEROT,-000.6,A*00
$ERALR,145856.66,CRITICAL RPM,V,A,CRITICAL RPM*56
$KMPRC,76.0,A,60.0,R,0.0,V,B,0*59
$KMRPM,E,0,59.8,0.0,A*65
$SDDPT,,0.0,50.0*4E
$AGRSA,1.3,A,,V*7D
!AIVDM,1,1,,B,15@R1V002V0:5r8E9bpRv2J`0<0;,0*10
$BNALR,144710.68,000,V,A,c1=MAN;c2=749;c3=1*58
$WIMWV,342.7,R,10.0,M,A*13
$ERALR,144710.71,005,V,A,005*5C
$VDVBW,016.97,,A,018.40,-000.25,A,,V,-000.24,A*43
$ERALR,150052.30,A02.01,V,A,A02.01*5D
!AIVDM,1,1,,B,14ShG@03A=06l9FE6KKJ=H8`05kd,0*68
$IIHTC,V,1.6,R,S,N,15.0,10.0,,,84.1,0.50,,T*1A
$AGRSA,1.3,A,,V*7D
$GPGGA,145919.48,3647.3007,N,00155.0443,E,2,08,01,+0048,M,+046,M,09,0520*45
$ERALR,150052.30,S08.01,V,A,S08.01*5D
$VRXDR,G,0.00,P,00,G,0.00,P,01,G,0.00,P,02,G,0.00,P,03*4A
$VRXDR,G,,P,04,G,,P,05,G,,P,06,G,,P,07*4A
$AGHTD,V,1.6,R,S,N,15.0,10.0,0.000,0.0,84.0,0.000,0.0,T,A,A,,84.1*12
$ERALR,150052.55,Z-BS-022,V,A,Z-BS-022*5E
$GPVTG,083.7,T,083.7,M,018.5,N,034.2,K,D*2F
!AIVDO,1,1,,,1815?pP02pP8ieFE3>bCAB`T05kd,0*73
$ERALR,150052.55,W046.03,V,A,W046.03*5E
$ERALR,DMAN_AL,0,V,A*3B
!AIVDM,1,1,,B,18154pP01o08MPhE6Ik:=`>d08<h,0*1F
$ERALR,150052.55,Z11.03,V,A,Z11.03*5E
!AIVDO,1,1,,A,1815?pP02pP8ieFE3>bCAB`T00Rg,0*0D
$GPZDA,145921.00,28,02,2015,-01,00*4E
$GPDTM,W84,,0.0,N,0.0,E,+0.0,W84*44
$ERALR,144711.23,001,V,A,001*5A
$ERALR,150052.55,Z11.16,V,A,Z11.16*5E
$AGRSA,1.3,A,,V*7D
$HEHDT,084.1,T*22
$HEROT,-000.5,A*03
$SDDPT,,0.0,50.0*4E
$ERALR,145857.72,WRONG WAY,V,A,WRONG WAY*52
$KMPRC,76.0,A,60.0,R,0.0,V,B,0*59
$KMRPM,E,0,59.8,0.0,A*65
!AIVDM,1,1,,B,1815@PP1BSP6talE;:I2g2@d0H<t,0*29
$RATTM,08,17.38,52.25,T,16.9,77.1,T,17.00,85.06,N,,T,,145928.00,M*0F
!AIVDM,1,1,,B,3815@5@01j08?UFE6PK:<p:`8000,0*1C
$AGRSA,1.4,A,,V*7A
$BNALR,144711.69,000,V,A,c1=MAN;c2=748;c3=1*59
$WIMWV,342.2,R,10.0,M,A*16
$IIHTC,V,1.6,R,S,N,15.0,10.0,,,84.1,0.50,,T*1A
$ERALR,144711.73,002,V,A,002*5F
$VDVBW,016.97,,A,018.40,-000.26,A,,V,-000.24,A*40
$ERALR,150053.32,A02.02,V,A,A02.02*5E
$GPGGA,145920.48,3647.3013,N,00155.0506,E,2,08,01,+0048,M,+046,M,10,0520*42
$ERALR,150053.32,S09,V,A,S09*5E
$AGHTD,V,1.8,R,S,N,15.0,10.0,0.000,0.0,84.0,0.000,0.0,T,A,A,,84.1*1C
$VRXDR,G,0.00,P,00,G,0.00,P,01,G,0.00,P,02,G,0.00,P,03*4A
$VRXDR,G,,P,04,G,,P,05,G,,P,06,G,,P,07*4A
!AIVDM,1,1,,B,14QsE=@1AB09F3DE6Qh3<RNh0D04,0*71
$AGRSA,1.4,A,,V*7A
$GPVTG,083.7,T,083.7,M,018.4,N,034.2,K,D*2E
$ERALR,150053.57,Z-BS-023,V,A,Z-BS-023*5D
!AIVDO,1,1,,,1815?pP02pP8igFE3>ckAB`V05kd,0*5A
$ERALR,150053.57,W046.04,V,A,W046.04*5D
$ERALR,LIGHT,0,V,A*31
$GPZDA,145922.00,28,02,2015,-01,00*4D
$GPDTM,W84,,0.0,N,0.0,E,+0.0,W84*44
$ERALR,150053.57,Z11.04,V,A,Z11.04*5D
$ERALR,144712.24,003,V,A,003*5E
$ERALR,150053.57,Z11.17,V,A,Z11.17*5D
$KMETL,145858.63,O,04,30,B,0*4F
$HEHDT,084.1,T*22
$HEROT,-000.4,A*02
$SDDPT,,0.0,50.0*4E
$ERALR,145858.79,STRT PR LOW,V,A,STRT PR LOW*56
$AGRSA,1.4,A,,V*7A
$PJRCD,RA,15,1,,,,,,,,,,,,,,,,,,,,,,,,,,,*69
$KMPRC,76.0,A,60.0,R,0.0,V,B,0*59
$KMRPM,E,0,59.8,0.0,A*65
!AIVDM,1,1,,B,19NSG<@03;0:5CfE?e=S:RTb08=0,0*03
!AIVDM,1,1,,A,13U8c4002oP;a;pE9Jm3:RT`88=4,0*3F
$PJRCL,RA,9,V,V,V,V,V,V,V,V,V,V,V,V,V,V,V,V,V,V,V,V,V,V,V,V,V,V,V,V,V,V,V,*3B
$IIHTC,V,1.8,R,S,N,15.0,10.0,,,84.1,0.50,,T*14
$WIMWV,342.1,R,10.0,M,A*15
$BNALR,144712.72,000,V,A,c1=MAN;c2=748;c3=1*50
$ERALR,144712.75,004,V,A,004*5A
$PJRCL,RA,90,V,V,,,,,V,V,V,V,V,V,V,V,V,,,,,,,,,,,,,,,,,*0B
$AGRSA,1.5,A,,V*7B
$GPGGA,145921.48,3647.3018,N,00155.0569,E,2,08,01,+0048,M,+046,M,09,0520*49
$ERALR,150054.33,A02.03,V,A,A02.03*58
$ERALR,150054.33,S10,V,A,S10*58
$PJRCL,RA,18,0,1,M,12,L1,H,R,3,3,1,0,6E,24,M,0A,M,01,A,,,*1C
$VDVBW,016.98,,A,018.40,-000.23,A,,V,-000.22,A*4C
!AIVDM,1,1,,A,18L>6<001dP8P4`E7OA3@2QH0<0G,0*31
$VRXDR,G,0.00,P,00,G,0.00,P,01,G,0.00,P,02,G,0.00,P,03*4A
$VRXDR,G,,P,04,G,,P,05,G,,P,06,G,,P,07*4A
$AGHTD,V,1.9,R,S,N,15.0,10.0,0.000,0.0,84.0,0.000,0.0,T,A,A,,84.1*1D
$GPVTG,083.6,T,083.6,M,018.4,N,034.1,K,D*2D
!AIVDM,1,1,,B,181:KR@01k09sBpE;IH2r2>h05kd,0*0D
$ERALR,150054.58,Z-BS-024,V,A,Z-BS-024*55
!AIVDO,1,1,,,1815?pP02pP8iiDE3>eCAB``05kd,0*4E
$ERALR,150054.58,W046.05,V,A,W046.05*55
$ERALR,DMAN_ON,0,V,A*37
$GPZDA,145923.00,28,02,2015,-01,00*4C
$GPDTM,W84,,0.0,N,0.0,E,+0.0,W84*44
$ERALR,150054.58,Z11.05,V,A,Z11.05*55
$AGRSA,1.5,A,,V*7B
$ERALR,150054.58,Z11.18,V,A,Z11.18*55
$HEHDT,084.1,T*22
$HEROT,-000.4,A*02
$ERALR,144713.27,005,V,A,005*5C
$SDDPT,,0.0,100.0*7A
$ERALR,145859.86,LOC SHD PWAR,V,A,LOC SHD PWAR*57
$KMPRC,76.0,A,60.0,R,0.0,V,B,0*59
$KMRPM,E,0,59.8,0.0,A*65
!AIVDM,1,1,,B,19ACAl@0?w<tSF0l4Q@>47sv0`>=,0*75
$AGRSA,1.6,A,,V*78
$RATTM,08,17.39,52.27,T,16.9,77.2,T,17.01,84.43,N,,T,,145930.00,M*07
$WIMWV,342.1,R,9.9,M,A*24
$IIHTC,V,1.9,R,S,N,15.0,10.0,,,84.1,0.50,,T*15
$BNALR,144713.74,000,V,A,c1=MAN;c2=746;c3=1*59
$ERALR,144713.78,001,V,A,001*56
$GPGGA,145922.48,3647.3024,N,00155.0632,E,2,08,01,+0048,M,+046,M,10,0520*40
$ERALR,150055.35,A02.04,V,A,A02.04*5F
$AGHTD,V,2.0,R,S,N,15.0,10.0,0.000,0.0,84.0,0.000,0.0,T,A,A,,84.1*17
$ERALR,150055.35,S12,V,A,S12*5F
$VRXDR,G,0.00,P,00,G,0.00,P,01,G,0.00,P,02,G,0.00,P,03*4A
$VRXDR,G,,P,04,G,,P,05,G,,P,06,G,,P,07*4A
$VDVBW,016.98,,A,018.50,-000.28,A,,V,-000.20,A*44
$AGRSA,1.6,A,,V*78
$GPVTG,083.7,T,083.7,M,018.4,N,034.1,K,D*2D
!AIVDO,1,1,,,1815?pP02pP8ikBE3>fSA2`b05kd,0*2B
$ERALR,150055.60,Z-BS-025,V,A,Z-BS-025*5F
$ERALR,150055.60,W046.06,V,A,W046.06*5F
$ERALR,DMAN_RESET,0,V,A*63
!AIVDM,1,1,,B,13ktwLPOhr0>?odE43D7dV@N0L11,0*4D
$GPZDA,145924.00,28,02,2015,-01,00*4B
$GPDTM,W84,,0.0,N,0.0,E,+0.0,W84*44
$ERALR,150055.60,Z11.06,V,A,Z11.06*5F
$HEHDT,084.1,T*22
$HEROT,-000.3,A*05
$ERALR,150055.60,Z11.19,A,A,Z11.19*48
$ERALR,144714.29,002,V,A,002*55
$SDDPT,,0.0,100.0*7A
$AGRSA,1.6,A,,V*78
$PJRC,VR,SENE012,??HTD*55
$ERALR,145900.92,LOC SLD PWAR,V,A,LOC SLD PWAR*5F
$KMPRC,76.0,A,60.0,R,0.0,V,B,0*59
$KMRPM,E,0,59.8,0.0,A*65
$WIMWV,342.3,R,9.8,M,A*27
$BNALR,144714.77,000,V,A,c1=MAN;c2=745;c3=1*5E
$IIHTC,V,2.0,R,S,N,15.0,10.0,,,84.1,0.50,,T*1F
$AGRSA,1.8,A,,V*76
$GPGGA,145923.48,3647.3029,N,00155.0696,E,2,08,01,+0048,M,+046,M,09,0520*4A
$ERALR,144714.80,003,V,A,003*56
$ERALR,150056.36,A02.05,V,A,A02.05*5F
$ERALR,150056.36,S13,V,A,S13*5F
$VRXDR,G,0.00,P,00,G,0.00,P,01,G,0.00,P,02,G,0.00,P,03*4A
$VRXDR,G,,P,04,G,,P,05,G,,P,06,G,,P,07*4A
$VDVBW,016.98,,A,018.50,-000.25,A,,V,-000.19,A*43
$AGHTD,V,2.0,R,S,N,15.0,10.0,0.000,0.0,84.0,0.000,0.0,T,A,A,,84.1*17
$GPVTG,083.6,T,083.6,M,018.4,N,034.1,K,D*2D
$ERALR,150056.61,Z-BS-026,V,A,Z-BS-026*5D
!AIVDO,1,1,,,1815?pP02qP8im@E3>h3AB`d05kd,0*36
$ERALR,150056.61,W046.07,V,A,W046.07*5D
$ERALR,DMAN_PRE,0,V,A*71
$GPZDA,145925.00,28,02,2015,-01,00*4A
$GPDTM,W84,,0.0,N,0.0,E,+0.0,W84*44
$AGRSA,1.8,A,,V*76
$ERALR,150056.61,Z11.07,V,A,Z11.07*5D
$HEHDT,084.1,T*22
$HEROT,-000.3,A*05
$ERALR,150056.61,Z11.20,V,A,Z11.20*5D
$ERALR,144715.32,004,V,A,004*5E
$SDDPT,,0.0,100.0*7A
!AIVDM,1,1,,A,13ldUF051L090SpE3q=3=2Vj00SG,0*73
$ERALR,145901.99,REMOTE FAIL,V,A,REMOTE FAIL*55
$AGRSA,1.9,A,,V*77
$PJRCD,RA,15,1,,,,,,,,,,,,,,,,,,,,,,,,,,,*69
$KMPRC,76.0,A,60.0,R,0.0,V,B,0*59
$KMRPM,E,0,59.8,0.0,A*65
!AIVDM,1,1,,A,15@R1V002V0:61DE9c2Rv2Jl05kd,0*6D
$WIMWV,342.5,R,9.7,M,A*2E
$IIHTC,V,2.0,R,S,N,15.0,10.0,,,84.1,0.50,,T*1F
$RATTM,08,17.39,52.21,T,16.9,77.1,T,17.02,83.11,N,,T,,145932.00,M*03
$BNALR,144715.79,000,V,A,c1=MAN;c2=744;c3=1*50
$GPGGA,145924.48,3647.3035,N,00155.0759,E,2,08,01,+0048,M,+046,M,10,0520*4A
$PJRCL,RA,9,V,V,V,V,V,V,V,V,V,V,V,V,V,V,V,V,V,V,V,V,V,V,V,V,V,V,V,V,V,V,V,*3B
$ERALR,144715.83,005,V,A,005*54
$AGHTD,V,2.0,R,S,N,15.0,10.0,0.000,0.0,84.0,0.000,0.0,T,A,A,,84.1*17
$ERALR,150057.37,A03.01,V,A,A03.01*5F
$VRXDR,G,0.00,P,00,G,0.00,P,01,G,0.00,P,02,G,0.00,P,03*4A
$VRXDR,G,,P,04,G,,P,05,G,,P,06,G,,P,07*4A
$ERALR,150057.37,S14,V,A,S14*5F
$PJRCL,RA,90,V,V,,,,,V,V,V,V,V,V,V,V,V,,,,,,,,,,,,,,,,,*0B
$VDVBW,016.99,,A,018.50,-000.23,A,,V,-000.17,A*4A
$AGRSA,1.9,A,,V*77
$PJRCL,RA,18,0,1,M,12,L1,H,R,3,3,1,0,6E,24,M,0A,M,01,A,,,*1C
$GPVTG,083.5,T,083.5,M,018.4,N,034.1,K,D*2D
!AIVDO,1,1,,,1815?pP02qP8io@E3>iCA2`f05kd,0*37
$ERALR,150057.62,Z-BS-027,V,A,Z-BS-027*5F
!AIVDO,1,1,,B,1815?pP02qP8io@E3>iCA2`f05kd,0*75
$GPZDA,145926.00,28,02,2015,-01,00*49
$GPDTM,W84,,0.0,N,0.0,E,+0.0,W84*44
$ERALR,150057.62,W046.08,V,A,W046.08*5F
$ERALR,DMAN_AL,0,V,A*3B
$HEHDT,084.1,T*22
$HEROT,-000.2,A*04
$ERALR,150057.62,Z11.08,V,A,Z11.08*5F
$ERALR,150057.62,Z11.21,V,A,Z11.21*5F
$SDDPT,,0.0,100.0*7A
$ERALR,144716.34,001,V,A,001*5B
!AIVDM,1,1,,A,19NWtKP02iP7o:tE4d8kC2Rn00SC,0*6E
$AGRSA,1.9,A,,V*77
$ERALR,145903.05,START BLOCK,V,A,START BLOCK*52
$WIMWV,342.9,R,9.8,M,A*2D
$IIHTC,V,2.0,R,S,N,15.0,10.0,,,84.1,0.50,,T*1F
$KMPRC,76.0,A,60.0,R,0.0,V,B,0*59
$KMRPM,E,0,59.8,0.0,A*65
$BNALR,144716.81,000,V,A,c1=MAN;c2=750;c3=1*51
$AGRSA,2.0,A,,V*7D
$GPGGA,145925.48,3647.3041,N,00155.0822,E,2,08,01,+0048,M,+046,M,09,0520*43
!AIVDM,2,1,2,A,5815?w02@0lqKLDsJ21<E8Dp@U0UAV2222222200D0M=C4jG,0*0C
!AIVDM,2,2,2,A,`JAC812Bj1BC0H888888880,2*55
$VRXDR,G,0.00,P,00,G,0.00,P,01,G,0.00,P,02,G,0.00,P,03*4A
$VRXDR,G,,P,04,G,,P,05,G,,P,06,G,,P,07*4A
$ERALR,144716.85,002,V,A,002*51
$ERALR,150058.38,A03.02,V,A,A03.02*5F
$ERALR,150058.38,Z-BS-001,V,A,Z-BS-001*5F
$AGHTD,V,2.0,R,S,N,15.0,10.0,0.000,0.0,84.0,0.000,0.0,T,A,A,,84.1*17
$VDVBW,016.99,,A,018.40,-000.20,A,,V,-000.16,A*49
$GPVTG,083.5,T,083.5,M,018.4,N,034.1,K,D*2D
!AIVDO,1,1,,,1815?pP02qP8iq>E3>jk@j`h05kd,0*2B
$ERALR,150058.63,Z-BS-029,V,A,Z-BS-029*51
$GPZDA,145927.00,28,02,2015,-01,00*48
$GPDTM,W84,,0.0,N,0.0,E,+0.0,W84*44
$ERALR,150058.63,W046.09,V,A,W046.09*51
$ERALR,LIGHT,0,V,A*31
$AGRSA,2.0,A,,V*7D
$HEHDT,084.1,T*22
$HEROT,-000.2,A*04
$ERALR,150058.63,Z11.09,V,A,Z11.09*51
$ERALR,150058.63,Z11.22,V,A,Z11.22*51
$SDDPT,,0.0,100.0*7A
$ERALR,144717.36,003,V,A,003*58
!AIVDM,1,1,,A,13aLk4@ti`08c:tE70i:7p6n2l0?,0*11
$AGRSA,2.0,A,,V*7D
$IIHTC,V,2.0,R,S,N,15.0,10.0,,,84.1,0.50,,T*1F
$WIMWV,343.3,R,9.9,M,A*27
$ERALR,145904.12,SAFETY SHD,V,A,SAFETY SHD*53
$KMPRC,76.0,A,60.0,R,0.0,V,B,0*59
$KMRPM,E,0,59.8,0.0,A*65
$GPGGA,145926.48,3647.3047,N,00155.0886,E,2,08,01,+0048,M,+046,M,10,0520*40
$RATTM,08,17.38,52.19,T,16.9,77.2,T,17.01,84.04,N,,T,,145934.00,M*0C
$BNALR,144717.84,000,V,A,c1=MAN;c2=749;c3=1*5D
$AGHTD,V,2.0,R,S,N,15.0,10.0,0.000,0.0,84.0,0.000,0.0,T,A,A,,84.1*17
$VRXDR,G,0.00,P,00,G,0.00,P,01,G,0.00,P,02,G,0.00,P,03*4A
$VRXDR,G,,P,04,G,,P,05,G,,P,06,G,,P,07*4A
$ERALR,150059.40,A03.03,V,A,A03.03*51
$ERALR,144717.88,004,V,A,004*5D
$ERALR,150059.40,Z-BS-002,V,A,Z-BS-002*51
$AGRSA,2.0,A,,V*7D
!AIVDM,1,1,,A,1815?w02B308p6NE5w?C4BMp0t0D,0*10
$GPVTG,083.5,T,083.5,M,018.4,N,034.2,K,D*2E