$GPGGA,121033.70,3606.3557,N,13001.6626,E,2,11,01,+0054,M,+025,M,06,0732*43
$GPRMC,121033.70,A,3606.3557,N,13001.6626,E,024.3,002.5,090514,08.,W,D*24
$GPVTG,002.5,T,002.5,M,024.3,N,045.0,K,D*22
$ERRPM,E,0,162,,A*75
$HEHDT,002.8,T*25
$HEROT,-002.0,A*04
!AIVDM,1,1,,A,4h4<hjiuqDd:S9@mCvDT:mA00000,0*43
$HEHDT,002.8,T*25
$HEROT,-002.1,A*05
!AIVDO,1,1,,,18JT@h303kaC>3BDb?0P6@7405P`,0*55
!AIVDM,1,1,,B,13P;>lh02@aCWopDUGL`?VU20`E:,0*05
$GPZDA,121035.00,09,05,2014,00,00*69
$GPDTM,W84,,0.0,N,0.0,E,+0.0,W84*44
$GPAPB,A,A,,,N,,,,T,,,T,,,D*62
$GPRMB,A,,,,,,,,,,,,,D*4F
$HEHDT,002.8,T*25
$HEROT,-002.2,A*06
$VDVBW,022.72,,A,023.90,-000.94,V,,V,-000.94,A*5C
$VDVLW,390.91,N,92.24,N*60
$VDDBT,,f,,M,,F*2D
$VDDPT,,,*7E
!AIVDM,1,1,,A,16ShL90000a@GJ0DVj4P01I808EB,0*10
!AIVDM,1,1,,B,404<hjQuqDd:S9@NM`DbLni00000,0*70
!AIVDM,1,1,,B,4h4<hk1uqDd:S9@GJlE5vbQ00000,0*13
$HEHDT,002.8,T*25
$HEROT,-002.3,A*07
$IIRSA,-3.4,A,0.0,A,A*07
$RATTM,09,18.98,200.63,T,7.7,213.3,T,3.55,-35.80,N,,T,,121034.00,M*2B
$RATTM,11,13.80,199.57,T,0.0,296.8,T,4.05,-32.66,N,,T,,121034.00,M*2F
$HEHDT,002.8,T*25
$HEROT,-002.3,A*07
$WIMWV,0.0,R,15.3,M,A*17
!AIVDM,1,1,,A,16Sohv001d9AIBpDh?K6T5C80L15,0*59
!AIVDM,1,1,,B,162??VP01iaCh1VEDT:Wt6G808EP,0*4B
!AIVDM,1,1,,B,16Tlvt0P009@GOlDVhJ00?w9r8ER,0*79
$SDDPT,218.3,0.0,500.0*58
$PJRCU,SD,218.3,0.0,500.0,,3,AFT*26
$PJRCU,SD,,0.0,500.0FWD*19
$PJRCS,DPT,218.3,0.0,500.0,,3,AFT*77
$GPGGA,121034.70,3606.3625,N,13001.6630,E,2,11,01,+0054,M,+025,M,07,0732*44
$GPRMC,121034.70,A,3606.3625,N,13001.6630,E,024.3,002.5,090514,08.,W,D*22
$GPVTG,002.5,T,002.5,M,024.3,N,045.0,K,D*22
$RATTM,92,18.99,201.21,T,7.9,211.6,T,3.84,-35.56,N,,T,,121044.00,M*26
$ERRPM,E,0,161,,A*76
$RATTM,100,13.80,200.19,T,0.0,292.1,T,4.19,-32.59,N,,T,,121044.00,M*1C
$RATTM,01,3.28,150.89,T,1.2,260.3,T,1.86,-6.63,N,,T,,121044.00,M*21
$HEHDT,002.8,T*25
$HEROT,-002.3,A*07
!AIVDM,1,1,,B,144iWe001M9BWFPDUw16wUU<0W3h,0*1F
!AIVDM,1,1,,B,144d89001o9BNg@DJ=9RA1o805P`,0*77
!AIVDM,1,1,,A,15An8J0027aAScPD@I>P=0;:08Ed,0*3C
!AIVDO,1,1,,,18JT@h303kaC>3JDb?A@6@7605P`,0*3E
$HEHDT,002.8,T*25
$HEROT,-002.4,A*00
$GPZDA,121036.00,09,05,2014,00,00*6A
$GPDTM,W84,,0.0,N,0.0,E,+0.0,W84*44
$GPAPB,A,A,,,N,,,,T,,,T,,,D*62
$GPRMB,A,,,,,,,,,,,,,D*4F
$RATTM,02,12.54,302.72,T,8.9,246.9,T,12.16,6.30,N,,T,,121044.00,M*04
$RATTM,03,8.27,310.42,T,1.0,85.5,T,6.32,13.29,N,,T,,121044.00,M*04
$RATTM,05,9.51,339.83,T,7.3,25.0,T,2.25,31.21,N,,T,,121044.00,M*04
$HEHDT,002.8,T*25
$HEROT,-002.5,A*01
!AIVDO,1,1,,B,18JT@h303kaC>3JDb?A@6@7605P`,0*7C
!AIVDM,1,1,,B,16ShVC801;9A42TDnFB6gEI:00Sm,0*53
$VDVBW,022.72,,A,023.90,-000.94,V,,V,-000.94,A*5C
$VDVLW,390.91,N,92.24,N*60
$VDDBT,,f,,M,,F*2D
$VDDPT,,,*7E
$HEHDT,002.8,T*25
$HEROT,-002.6,A*02
$IIRSA,-3.4,A,0.0,A,A*07
$WIMWV,0.0,R,15.2,M,A*16
$HEHDT,002.7,T*2A
$HEROT,-002.7,A*03
$SDDPT,218.3,0.0,500.0*58
$PJRCU,SD,218.3,0.0,500.0,,3,AFT*26
$PJRCU,SD,,0.0,500.0FWD*19
$PJRCS,DPT,218.3,0.0,500.0,,3,AFT*77
$GPGGA,121035.70,3606.3692,N,13001.6634,E,2,11,01,+0054,M,+025,M,07,0732*4D
$GPRMC,121035.70,A,3606.3692,N,13001.6634,E,024.3,002.5,090514,08.,W,D*2B
$GPVTG,002.5,T,002.5,M,024.3,N,045.0,K,D*22
!AIVDM,1,1,,B,16SrLn0P1w9CV8DDS@cbf8O60@Ia,0*7E
!AIVDM,1,1,,A,16SwpdP0009@GeJDVgJP02O:25P`,0*4F
$ERRPM,E,0,162,,A*75
$HEHDT,002.7,T*2A
$HEROT,-002.8,A*0C
$HEHDT,002.7,T*2A
$HEROT,-002.9,A*0D
$GPZDA,121037.00,09,05,2014,00,00*6B
$GPDTM,W84,,0.0,N,0.0,E,+0.0,W84*44
$GPAPB,A,A,,,N,,,,T,,,T,,,D*62
$GPRMB,A,,,,,,,,,,,,,D*4F
!AIVDM,2,1,6,A,56Set1T000037;?F220P4r0@tpO7>2222222221@00000t00,0*62
!AIVDM,2,2,6,A,00000000000000000000008,2*2A
!AIVDM,1,1,,B,16Shk70P0p9A;s8DTFFoUgw<2D0j,0*47
!AIVDO,1,1,,,18JT@h303kaC>3RDb?R@6@7805P`,0*3B
$HEHDT,002.7,T*2A
$HEROT,-002.9,A*0D
!AIVDM,1,1,,B,16T0M1PP019@H3rDVdrKb?w=r@FM,0*2A
$HEHDT,002.7,T*2A
$HEROT,-003.0,A*05
$VDVBW,022.72,,A,023.90,-000.94,V,,V,-000.94,A*5C
$VDVLW,390.91,N,92.24,N*60
$VDDBT,,f,,M,,F*2D
$VDDPT,,,*7E
!AIVDM,1,1,,B,15TTk@00009@sKpDcHob7`q<0@FU,0*20
$IIRSA,-3.4,A,0.0,A,A*07
$RATTM,09,18.98,200.63,T,7.7,213.3,T,3.55,-35.80,N,,T,,121036.00,M*29
$RATTM,11,13.80,199.57,T,0.0,296.8,T,4.05,-32.66,N,,T,,121036.00,M*2D
$HEHDT,002.7,T*2A
$HEROT,-003.0,A*05
$WIMWV,359.0,R,15.2,M,A*19
!AIVDM,1,1,,B,16U@Hn8P0t9A7otDQ57GFww<2d0w,0*52
$SDDPT,218.3,0.0,500.0*58
$PJRCU,SD,218.3,0.0,500.0,,3,AFT*26
$PJRCU,SD,,0.0,500.0FWD*19
$PJRCS,DPT,218.3,0.0,500.0,,3,AFT*77
$GPGGA,121036.70,3606.3759,N,13001.6638,E,2,11,01,+0054,M,+025,M,06,0732*45
$GPRMC,121036.70,A,3606.3759,N,13001.6638,E,024.3,002.5,090514,08.,W,D*22
$GPVTG,002.5,T,002.5,M,024.3,N,045.0,K,D*22
$ERRPM,E,0,162,,A*75
$RATTM,92,18.99,201.21,T,7.9,211.6,T,3.84,-35.56,N,,T,,121046.00,M*24
$RATTM,100,13.80,200.19,T,0.0,292.1,T,4.19,-32.59,N,,T,,121046.00,M*1E
$RATTM,01,3.28,150.89,T,1.2,260.3,T,1.86,-6.63,N,,T,,121046.00,M*23
$HEHDT,002.7,T*2A
$HEROT,-003.1,A*04
!AIVDM,1,1,,B,16UDRN8P009@R8fDbH`of?w<05P`,0*74
!AIVDO,1,1,,A,18JT@h303kaC>3`Db?k@6@7:05P`,0*73
$HEHDT,002.7,T*2A
$HEROT,-003.1,A*04
$GPZDA,121038.00,09,05,2014,00,00*64
$GPDTM,W84,,0.0,N,0.0,E,+0.0,W84*44
$GPAPB,A,A,,,N,,,,T,,,T,,,D*62
$GPRMB,A,,,,,,,,,,,,,D*4F
$RATTM,02,12.54,302.72,T,8.9,246.9,T,12.16,6.30,N,,T,,121046.00,M*06
$RATTM,03,8.27,310.42,T,1.0,85.5,T,6.32,13.29,N,,T,,121046.00,M*06
$RATTM,05,9.51,339.83,T,7.3,25.0,T,2.25,31.21,N,,T,,121046.00,M*06
$HEHDT,002.6,T*2B
$HEROT,-003.3,A*06
!AIVDM,1,1,,A,16Swqe`0009@?h0D`??P08s>25P`,0*59
!AIVDM,1,1,,B,16SfgS?P009@W5JDw7rS2ww>20SK,0*2E
!AIVDM,1,1,,A,16TrFd002DaA>a`DN5bPqPm<0<1h,0*64
$HEHDT,002.6,T*2B
$HEROT,-003.3,A*06
$VDVBW,022.71,,A,023.90,-000.94,V,,V,-000.94,A*5F
$VDVLW,390.91,N,92.24,N*60
$VDDBT,,f,,M,,F*2D
$VDDPT,,,*7E
$IIRSA,-3.6,A,0.0,A,A*05
$WIMWV,359.0,R,15.3,M,A*18
$HEHDT,002.6,T*2B
$HEROT,-003.4,A*01
$SDDPT,218.3,0.0,500.0*58
$PJRCU,SD,218.3,0.0,500.0,,3,AFT*26
$PJRCU,SD,,0.0,500.0FWD*19
$PJRCS,DPT,218.3,0.0,500.0,,3,AFT*77
$GPGGA,121037.70,3606.3827,N,13001.6641,E,2,11,01,+0054,M,+025,M,07,0732*4D
$ERRPM,E,0,161,,A*76
$GPRMC,121037.70,A,3606.3827,N,13001.6641,E,024.3,002.5,090514,08.,W,D*2B
$GPVTG,002.5,T,002.5,M,024.3,N,045.0,K,D*22
$HEHDT,002.6,T*2B
$HEROT,-003.5,A*00
!AIVDO,1,1,,,18JT@h303kaC>3hDb@4@6@7<05P`,0*1C
$HEHDT,002.6,T*2B
$HEROT,-003.6,A*03
$GPZDA,121039.00,09,05,2014,00,00*65
$GPDTM,W84,,0.0,N,0.0,E,+0.0,W84*44
$GPAPB,A,A,,,N,,,,T,,,T,,,D*62
$GPRMB,A,,,,,,,,,,,,,D*4F
!AIVDM,1,1,,B,16T0UdP0009@GJPDVhtt4oO@2<19,0*1B
!AIVDM,1,1,,A,404<gWQuqDd:Wa>Ur2D6fb?P08GS,0*4D
!AIVDM,1,1,,A,4h4<gWiuqDd:Wa@E`:DGE`O008GT,0*1E
$HEHDT,002.6,T*2B
$HEROT,-003.6,A*03
!AIVDM,1,1,,A,16T8jl0wBFaAFWtDM3@P:08v0<vF,0*1F
!AIVDM,1,1,,B,16Sr9D001U9A@7HDqNL6f5GB08Ge,0*20
$HEHDT,002.6,T*2B
$HEROT,-003.6,A*03
$VDVBW,022.70,,A,023.90,-000.94,V,,V,-000.94,A*5E
$IIRSA,-3.6,A,0.0,A,A*05
$VDVLW,390.91,N,92.24,N*60
$VDDBT,,f,,M,,F*2D
$VDDPT,,,*7E
!AIVDM,1,1,,B,16T`J@0P009A4=<DUpiLqOw@20S?,0*12
!AIVDM,1,1,,A,16T0`FPP00a@G`PDVgucoUS>2<1>,0*00
!AIVDM,1,1,,B,16T0Q=00009@IjtDVu`h08cAr@Go,0*5B
!AIVDM,1,1,,A,15Aig:0s@09@i20DabGUei1<0D0w,0*11
$RATTM,09,19.01,200.54,T,7.9,211.6,T,3.64,-35.59,N,,T,,121038.00,M*2D
$RATTM,11,13.82,199.50,T,0.0,297.3,T,4.05,-32.69,N,,T,,121038.00,M*23
$WIMWV,359.0,R,15.1,M,A*1A
$HEHDT,002.5,T*28
$HEROT,-003.7,A*02
$SDDPT,197.5,0.0,500.0*5A
$PJRCU,SD,197.5,0.0,500.0,,3,AFT*24
$PJRCU,SD,,0.0,500.0FWD*19
$PJRCS,DPT,197.5,0.0,500.0,,3,AFT*75
$GPGGA,121038.70,3606.3895,N,13001.6645,E,2,11,01,+0054,M,+025,M,07,0732*4F
$ERRPM,E,0,161,,A*76
$GPRMC,121038.70,A,3606.3895,N,13001.6645,E,024.3,002.5,090514,08.,W,D*29
$GPVTG,002.5,T,002.5,M,024.3,N,045.0,K,D*22
$RATTM,92,19.01,201.02,T,7.8,209.3,T,4.00,-35.42,N,,T,,121048.00,M*28
$RATTM,100,13.82,200.07,T,0.0,291.9,T,4.19,-32.64,N,,T,,121048.00,M*18
$RATTM,01,3.30,150.98,T,1.2,260.9,T,1.85,-6.68,N,,T,,121048.00,M*26
$HEHDT,002.5,T*28
$HEROT,-003.9,A*0C
!AIVDO,1,1,,,18JT@h303kaC>3pDb@E06@7>05P`,0*07
$HEHDT,002.5,T*28
$HEROT,-003.9,A*0C
$GPZDA,121040.00,09,05,2014,00,00*6B
$GPDTM,W84,,0.0,N,0.0,E,+0.0,W84*44
$GPAPB,A,A,,,N,,,,T,,,T,,,D*62
$GPRMB,A,,,,,,,,,,,,,D*4F
$RATTM,02,12.53,302.36,T,9.0,246.6,T,12.16,6.20,N,,T,,121048.00,M*09
$RATTM,03,8.27,310.40,T,0.9,85.6,T,6.32,13.23,N,,T,,121048.00,M*0B
$RATTM,05,9.50,339.74,T,7.3,25.0,T,2.25,31.23,N,,T,,121048.00,M*03
!AIVDM,1,1,,A,19N`0@0v1saCaeFDj5QorFBd08H8,0*5B
!AIVDM,1,1,,A,36T<5t@Oiia@VWDDvq9bU`W@23sh,0*41
!AIVDM,1,1,,B,16ShuW`0009@UcLD`BQ002WB00RR,0*78
!AIVDO,1,1,,B,18JT@h303kaC>3pDb@E06@7>0<1q,0*3C
$HEHDT,002.5,T*28
$HEROT,-004.1,A*03
!AIVDM,1,1,,B,17b<Sh001>9AkClDLDDnN4oD08HB,0*40
!AIVDM,1,1,,B,1815=k@01paFjO2DLH8j>Qq@0`HC,0*68
$HEHDT,002.5,T*28
$HEROT,-004.2,A*00
!AIVDM,1,1,,A,16ShVM00009@GgrDVgc@0:1B2@HH,0*77
!AIVDM,1,1,,A,19NS0V001I9@vKPDdPB8jVw@08HI,0*31
!AIVDM,1,1,,B,13Jw@T002:aBVvdD`l4PmPe>0<;o,0*73
!AIVDM,1,1,,B,16Swrug0009@GctDVg?@09WB2<1=,0*6B
$IIRSA,-3.6,A,0.0,A,A*05
$WIMWV,0.0,R,15.2,M,A*16
$VDVBW,022.69,,A,023.90,-000.94,V,,V,-000.94,A*56
$VDVLW,390.99,N,92.24,N*68
$VDDBT,,f,,M,,F*2D
$VDDPT,,,*7E
$HEHDT,002.4,T*29
$HEROT,-004.3,A*01
$SDDPT,197.5,0.0,500.0*5A
$PJRCU,SD,197.5,0.0,500.0,,3,AFT*24
$PJRCU,SD,,0.0,500.0FWD*19
$PJRCS,DPT,197.5,0.0,500.0,,3,AFT*75
$GPGGA,121039.70,3606.3962,N,13001.6649,E,2,11,01,+0054,M,+025,M,06,0732*4A
$ERRPM,E,0,162,,A*75
$GPRMC,121039.70,A,3606.3962,N,13001.6649,E,024.3,002.5,090514,08.,W,D*2D
$GPVTG,002.5,T,002.5,M,024.3,N,045.0,K,D*22
$HEHDT,002.4,T*29
$HEROT,-004.4,A*06
$HEHDT,002.4,T*29
$HEROT,-004.5,A*07
!AIVDM,1,1,,B,16T0`j00009@DrtDW1H;NhoD25P`,0*1C
!AIVDM,1,1,,B,15QHtH002`aBwS@DIdM8Q6kB0<1u,0*0B
$GPZDA,121041.00,09,05,2014,00,00*6A
$GPDTM,W84,,0.0,N,0.0,E,+0.0,W84*44
$GPAPB,A,A,,,N,,,,T,,,T,,,D*62
$GPRMB,A,,,,,,,,,,,,,D*4F
!AIVDM,1,1,,B,16Sf4WgP1:9ACt<DVl>7MwwD25P`,0*72
!AIVDM,1,1,,A,13P;>lh02@aCWk<DUF`8?FU>0d0t,0*18
!AIVDO,1,1,,,18JT@h303kaC>3vDb@V06@7@05P`,0*6C
!AIVDM,1,1,,A,4h4<iTiuqDd:a9>woTEO`jQ00000,0*73
$HEHDT,002.4,T*29
$HEROT,-004.6,A*04
$HEHDT,002.4,T*29
$HEROT,-004.7,A*05
$IIRSA,-3.8,A,0.0,A,A*0B
$VDVBW,022.69,,A,023.90,-000.94,V,,V,-000.94,A*56
$VDVLW,390.99,N,92.24,N*68
$VDDBT,,f,,M,,F*2D
$VDDPT,,,*7E
!AIVDM,1,1,,B,16Sf>v0P0=a@MF<Dh9Sm;gwB28Ht,0*50
!AIVDM,1,1,,B,16Smh4?0009@D9TDk@ORMs?D28Hv,0*1C
$WIMWV,0.0,R,15.4,M,A*10
!AIVDM,1,1,,B,16T0LIgP009@GdVDVhG00?wEr0Rp,0*28
!AIVDM,1,1,,A,19NS=A001gaDnjJE>UhofF9F0D0N,0*0E
$RATTM,09,19.02,200.64,T,7.9,213.7,T,3.47,-35.73,N,,T,,121040.00,M*28
$RATTM,11,13.83,199.62,T,0.0,297.9,T,4.05,-32.73,N,,T,,121040.00,M*2D
$HEHDT,002.4,T*29
$HEROT,-004.7,A*05
$SDDPT,197.5,0.0,500.0*5A
$PJRCU,SD,197.5,0.0,500.0,,3,AFT*24
$PJRCU,SD,,0.0,500.0FWD*19
$PJRCS,DPT,197.5,0.0,500.0,,3,AFT*75
$GPGGA,121040.70,3606.4029,N,13001.6652,E,2,11,01,+0054,M,+025,M,07,0732*4E
$ERRPM,E,0,161,,A*76
$GPRMC,121040.70,A,3606.4029,N,13001.6652,E,024.3,002.5,090514,08.,W,D*28
$GPVTG,002.5,T,002.5,M,024.3,N,045.0,K,D*22
$RATTM,92,19.04,201.10,T,7.9,207.8,T,4.10,-35.26,N,,T,,121050.00,M*20
$RATTM,100,13.84,200.14,T,0.0,292.2,T,4.19,-32.67,N,,T,,121050.00,M*1E
$RATTM,01,3.32,151.19,T,1.2,260.9,T,1.85,-6.72,N,,T,,121050.00,M*2E
$HEHDT,002.3,T*2E
$HEROT,-004.8,A*0A
!AIVDM,1,1,,A,16Set1PP00a@><JD`2m7p?wD25P`,0*3C
$HEHDT,002.3,T*2E
$HEROT,-004.8,A*0A
$GPZDA,121042.00,09,05,2014,00,00*69
$GPDTM,W84,,0.0,N,0.0,E,+0.0,W84*44
$GPAPB,A,A,,,N,,,,T,,,T,,,D*62
$GPRMB,A,,,,,,,,,,,,,D*4F
!AIVDM,1,1,,A,16T03`PP00a@VmjDwD=7CgwD25P`,0*3B
!AIVDO,1,1,,,18JT@h303kaC>44Db@o06@5B05P`,0*10
!AIVDO,1,1,,A,18JT@h303kaC>44Db@o06@5B00S=,0*0A
!AIVDM,1,1,,B,16Sg=j70009@R;:DbIpVjAmFp5P`,0*50
$HEHDT,002.3,T*2E
$HEROT,-004.8,A*0A
$RATTM,02,12.53,302.45,T,9.0,246.6,T,12.16,6.17,N,,T,,121050.00,M*00
$RATTM,03,8.25,310.24,T,0.9,87.4,T,6.33,13.14,N,,T,,121050.00,M*07
$RATTM,05,9.49,339.71,T,7.4,25.0,T,2.23,31.32,N,,T,,121050.00,M*06
$HEHDT,002.3,T*2E
$HEROT,-004.9,A*0B
$IIRSA,-3.8,A,0.0,A,A*0B
$WIMWV,359.0,R,15.3,M,A*18
$HEHDT,002.3,T*2E
$HEROT,-004.9,A*0B
$SDDPT,194.1,0.0,500.0*5D
$PJRCU,SD,194.1,0.0,500.0,,3,AFT*23
$PJRCU,SD,,0.0,500.0FWD*19
$PJRCS,DPT,194.1,0.0,500.0,,3,AFT*72
$VDVBW,022.68,,A,023.90,-000.94,V,,V,-000.94,A*57
$VDVLW,390.99,N,92.31,N*6C
$VDDBT,,f,,M,,F*2D
$VDDPT,,,*7E
$GPGGA,121041.70,3606.4097,N,13001.6655,E,2,11,01,+0054,M,+025,M,07,0732*4D
$GPRMC,121041.70,A,3606.4097,N,13001.6655,E,024.3,002.4,090514,08.,W,D*2A
$ERRPM,E,0,162,,A*75
$GPVTG,002.4,T,002.4,M,024.3,N,045.0,K,D*22
$HEHDT,002.2,T*2F
$HEROT,-004.9,A*0B
$HEHDT,002.2,T*2F
$HEROT,-005.0,A*03
$GPZDA,121043.00,09,05,2014,00,00*68
$GPDTM,W84,,0.0,N,0.0,E,+0.0,W84*44
$GPAPB,A,A,,,N,,,,T,,,T,,,D*62
$GPRMB,A,,,,,,,,,,,,,D*4F
$HEHDT,002.2,T*2F
$HEROT,-005.1,A*02
!AIVDM,1,1,,A,145=@EPP1Q9Dq7fDiF<1IgwJ00SW,0*62
!AIVDO,1,1,,,18JT@h303kaC>4<DbA7h6@5D05P`,0*1F
!AIVDM,1,1,,B,36T<5t@Oifa@VSfDvq:bcpiF212h,0*35
!AIVDM,1,1,,A,16T0`?00019@O<`D``PQh2uJ0<1>,0*52
$HEHDT,002.2,T*2F
$HEROT,-005.1,A*02
$IIRSA,-3.8,A,0.0,A,A*0B
$WIMWV,0.0,R,15.5,M,A*11
$HEHDT,002.2,T*2F
$HEROT,-005.2,A*01
$RATTM,09,19.04,200.59,T,7.8,214.1,T,3.48,-35.98,N,,T,,121042.00,M*28
$RATTM,11,13.85,199.43,T,0.0,299.4,T,4.05,-32.76,N,,T,,121042.00,M*2C
$SDDPT,194.1,0.0,500.0*5D
$PJRCU,SD,194.1,0.0,500.0,,3,AFT*23
$PJRCU,SD,,0.0,500.0FWD*19
$PJRCS,DPT,194.1,0.0,500.0,,3,AFT*72
$PJRCL,SD,9,V,V,V,V,V,V,V,V,V,V,V,V,V,V*69
$GPGGA,121042.70,3606.4165,N,13001.6658,E,2,11,01,+0054,M,+025,M,08,0732*40
$GPRMC,121042.70,A,3606.4165,N,13001.6658,E,024.3,002.4,090514,08.,W,D*28
$GPVTG,002.4,T,002.4,M,024.3,N,045.0,K,D*22
$ERRPM,E,0,162,,A*75
$VDVBW,022.68,,A,023.90,-000.94,V,,V,-000.94,A*57
$VDVLW,390.99,N,92.31,N*6C
$VDDBT,,f,,M,,F*2D
$VDDPT,,,*7E
$HEHDT,002.2,T*2F
$HEROT,-005.3,A*00
$RATTM,92,19.06,201.00,T,7.9,205.9,T,4.26,-35.19,N,,T,,121052.00,M*2B
$RATTM,100,13.85,200.03,T,0.0,294.0,T,4.18,-32.71,N,,T,,121052.00,M*19
$RATTM,01,3.33,151.44,T,1.2,261.0,T,1.85,-6.76,N,,T,,121052.00,M*29
!AIVDM,1,1,,B,144c:HPP1i9AUlLDINgPN7QD0@H5,0*45
!AIVDO,1,1,,B,18JT@h303kaC>4BDbAHh605F0@JM,0*6C
!AIVDM,1,1,,A,15QHED0P1B9ADm<DRgE7EgwJ2D1B,0*5D
!AIVDM,1,1,,A,16Sg:4PP0=aCGFvD`O>rlOwH2HJO,0*07
$HEHDT,002.1,T*2C
$HEROT,-005.3,A*00
$GPZDA,121044.00,09,05,2014,00,00*6F
$GPDTM,W84,,0.0,N,0.0,E,+0.0,W84*44
$GPAPB,A,A,,,N,,,,T,,,T,,,D*62
$GPRMB,A,,,,,,,,,,,,,D*4F
$HEHDT,002.1,T*2C
$HEROT,-005.3,A*00
$RATTM,02,12.53,302.32,T,9.1,246.4,T,12.16,6.09,N,,T,,121052.00,M*0E
$RATTM,03,8.24,310.15,T,0.8,76.1,T,6.36,13.07,N,,T,,121052.00,M*0B
$RATTM,05,9.48,339.75,T,7.4,24.4,T,2.27,31.22,N,,T,,121052.00,M*01
$HEHDT,002.1,T*2C
$HEROT,-005.4,A*07
$IIRSA,-3.8,A,0.0,A,A*0B
$WIMWV,359.0,R,15.7,M,A*1C
$HEHDT,002.1,T*2C
$HEROT,-005.4,A*07
!AIVDM,1,1,,B,4h4<hjiuqDd:e9@mCvDT:ni00000,0*5D
!AIVDM,1,1,,B,162??R001p9B>`0DN@C0k@aL1PS2,0*29
$SDDPT,193.3,0.0,500.0*58
$PJRCU,SD,193.3,0.0,500.0,,3,AFT*26
$PJRCU,SD,,0.0,500.0FWD*19
$PJRCS,DPT,193.3,0.0,500.0,,3,AFT*77
$GPGGA,121043.70,3606.4233,N,13001.6662,E,2,11,01,+0054,M,+025,M,07,0732*47
$GPRMC,121043.70,A,3606.4233,N,13001.6662,E,024.3,002.4,090514,08.,W,D*20
$ERRPM,E,0,162,,A*75
$GPVTG,002.4,T,002.4,M,024.3,N,045.0,K,D*22
$VDVBW,022.68,,A,023.90,-000.94,V,,V,-000.94,A*57
$VDVLW,390.99,N,92.31,N*6C
$VDDBT,,f,,M,,F*2D
$VDDPT,,,*7E
$HEHDT,002.1,T*2C
$HEROT,-005.5,A*06
!AIVDM,1,1,,B,16TrFd002DaA>f`DN6p0qPmJ0@Js,0*7B
!AIVDM,1,1,,B,16T8jl00BFaAF`pDM4S0:09>05P`,0*5C
!AIVDO,1,1,,,18JT@h303kaC>4HDbAah605H05P`,0*41
$HEHDT,002.0,T*2D
$HEROT,-005.6,A*05
$GPZDA,121045.00,09,05,2014,00,00*6E
$GPDTM,W84,,0.0,N,0.0,E,+0.0,W84*44
$GPAPB,A,A,,,N,,,,T,,,T,,,D*62
$GPRMB,A,,,,,,,,,,,,,D*4F
$HEHDT,002.0,T*2D
$HEROT,-005.7,A*04
!AIVDM,1,1,,A,404<hjQuqDd:e9@NMnDbLki00000,0*4E
!AIVDM,1,1,,A,4h4<hk1uqDd:e9@GJfE5va100000,0*4F
!AIVDM,1,1,,B,16Sohv001d9AIF0Dh>@6QUCL08K;,0*05
!AIVDM,1,1,,A,16Tlvt0P009@GOtDVhI@0?wMr8K?,0*06
!AIVDM,1,1,,B,16ShL90000a@GJDDVj4P01IL08K@,0*1F
$HEHDT,002.0,T*2D
$HEROT,-005.7,A*04
$IIRSA,-4.0,A,0.0,A,A*04
$WIMWV,359.0,R,15.4,M,A*1F
$HEHDT,002.0,T*2D
$HEROT,-005.8,A*0B
$RATTM,09,19.07,200.54,T,7.7,214.6,T,3.45,-36.09,N,,T,,121044.00,M*2E
$RATTM,11,13.87,199.42,T,0.0,300.1,T,4.04,-32.80,N,,T,,121044.00,M*25
$SDDPT,193.3,0.0,500.0*58
$PJRCU,SD,193.3,0.0,500.0,,3,AFT*26
$PJRCU,SD,,0.0,500.0FWD*19
$PJRCS,DPT,193.3,0.0,500.0,,3,AFT*77
$GPGGA,121044.70,3606.4300,N,13001.6665,E,2,11,01,+0054,M,+025,M,07,0732*46
$GPRMC,121044.70,A,3606.4300,N,13001.6665,E,024.3,002.4,090514,08.,W,D*21
$GPVTG,002.4,T,002.4,M,024.3,N,045.0,K,D*22
$VDVBW,022.67,,A,023.90,-000.94,V,,V,-000.94,A*58
$VDVLW,390.99,N,92.31,N*6C
$ERRPM,E,0,161,,A*76
$VDDBT,,f,,M,,F*2D
$VDDPT,,,*7E
$HEHDT,001.9,T*27
$HEROT,-005.8,A*0B
$RATTM,92,19.09,201.13,T,7.9,210.4,T,3.90,-35.54,N,,T,,121054.00,M*2A
$RATTM,100,13.86,200.19,T,0.0,294.7,T,4.18,-32.75,N,,T,,121054.00,M*14
$RATTM,01,3.34,151.56,T,1.2,261.2,T,1.85,-6.81,N,,T,,121054.00,M*21
!AIVDM,1,1,,B,16SwpdP0009@GeJDVgITa2OL28KP,0*4A
!AIVDM,1,1,,B,16Sg?70P0h9A=vpDc?@04?wL2HKQ,0*5D
!AIVDM,1,1,,A,144iWe001M9BWFPDUv?6u5UP0PRe,0*76
!AIVDO,1,1,,,18JT@h303kaC>4PDbArh605J05P`,0*48
!AIVDO,1,1,,A,18JT@h303kaC>4PDbArh605J0D1q,0*08
$HEHDT,001.9,T*27
$HEROT,-005.9,A*0A
$GPZDA,121046.00,09,05,2014,00,00*6D
$GPDTM,W84,,0.0,N,0.0,E,+0.0,W84*44
$GPAPB,A,A,,,N,,,,T,,,T,,,D*62
$GPRMB,A,,,,,,,,,,,,,D*4F
$HEHDT,001.9,T*27
$HEROT,-005.9,A*0A
$RATTM,02,12.52,302.19,T,9.1,246.4,T,12.16,6.04,N,,T,,121054.00,M*0D
$RATTM,03,8.23,309.99,T,0.9,89.0,T,6.34,13.01,N,,T,,121054.00,M*02
$RATTM,05,9.47,339.62,T,7.6,25.8,T,2.13,31.44,N,,T,,121054.00,M*06
!AIVDM,1,1,,A,15QHtH002`aBwNpDIco`Q6kJ0L1u,0*20
!AIVDM,1,1,,B,16ShiPPP009@Dm:DW03SjgwP08Kl,0*0C
$HEHDT,001.9,T*27
$HEROT,-006.0,A*00
$IIRSA,-4.0,A,0.0,A,A*04
$WIMWV,0.0,R,15.0,M,A*14
$HEHDT,001.9,T*27
$HEROT,-006.0,A*00
$SDDPT,193.3,0.0,500.0*58
$PJRCU,SD,193.3,0.0,500.0,,3,AFT*26
$PJRCU,SD,,0.0,500.0FWD*19
$PJRCS,DPT,193.3,0.0,500.0,,3,AFT*77
$GPGGA,121045.70,3606.4367,N,13001.6668,E,2,11,01,+0054,M,+025,M,08,0732*44
$ERRPM,E,0,161,,A*76
$GPRMC,121045.70,A,3606.4367,N,13001.6668,E,024.3,002.3,090514,08.,W,D*2B
$GPVTG,002.3,T,002.3,M,024.3,N,045.0,K,D*22
$HEHDT,001.8,T*26
$HEROT,-006.1,A*01
$VDVBW,022.67,,A,023.90,-000.94,V,,V,-000.94,A*58
$VDVLW,390.99,N,92.31,N*6C
$VDDBT,,f,,M,,F*2D
$VDDPT,,,*7E
!AIVDM,1,1,,B,16SemK0P17aA@T8DaC802?wN28Kw,0*34
!AIVDM,1,1,,A,36T<5t@Oida@VO6Dvq>JqpsN24q0,0*4A
!AIVDM,1,1,,A,16ShVC801;9A43lDnEP6g5IN0D0<,0*3A
!AIVDO,1,1,,,18JT@h303kaC>4VDbB;P605L05P`,0*3A
$HEHDT,001.8,T*26
$HEROT,-006.1,A*01
$GPZDA,121047.00,09,05,2014,00,00*6C
$GPDTM,W84,,0.0,N,0.0,E,+0.0,W84*44
$GPAPB,A,A,,,N,,,,T,,,T,,,D*62
$GPRMB,A,,,,,,,,,,,,,D*4F
!AIVDM,1,1,,B,13P;>lh02?aCWfPDUEn8?VUJ0pL=,0*4D
!AIVDM,1,1,,A,15TTk@00009@sKrDcHp:7`qP0Kww,0*12
$HEHDT,001.8,T*26
$HEROT,-006.2,A*02
!AIVDM,1,1,,B,16Swqe`0009@?gvD`?@008sP20T2,0*31
$HEHDT,001.8,T*26
$HEROT,-006.3,A*03
$IIRSA,-4.0,A,0.0,A,A*04
$WIMWV,0.0,R,15.2,M,A*16
$HEHDT,001.7,T*29
$HEROT,-006.4,A*04
$SDDPT,195.0,0.0,500.0*5D
$PJRCU,SD,195.0,0.0,500.0,,3,AFT*23
$PJRCU,SD,,0.0,500.0FWD*19
$PJRCS,DPT,195.0,0.0,500.0,,3,AFT*72
$RATTM,09,19.07,200.54,T,7.7,214.6,T,3.45,-36.09,N,,T,,121046.00,M*2C
$RATTM,11,13.87,199.42,T,0.0,300.1,T,4.04,-32.80,N,,T,,121046.00,M*27
$GPGGA,121046.70,3606.4434,N,13001.6671,E,2,11,01,+0054,M,+025,M,07,0732*41
$GPRMC,121046.70,A,3606.4434,N,13001.6671,E,024.3,002.3,090514,08.,W,D*21
$ERRPM,E,0,161,,A*76
$GPVTG,002.3,T,002.3,M,024.3,N,045.0,K,D*22
$HEHDT,001.7,T*29
$HEROT,-006.5,A*05
$RATTM,92,19.09,201.13,T,7.9,210.4,T,3.90,-35.54,N,,T,,121056.00,M*28
$RATTM,100,13.86,200.19,T,0.0,294.7,T,4.18,-32.75,N,,T,,121056.00,M*16
$RATTM,01,3.34,151.56,T,1.2,261.2,T,1.85,-6.81,N,,T,,121056.00,M*23
$VDVBW,022.67,,A,023.90,-000.94,V,,V,-000.94,A*58
$VDVLW,390.99,N,92.31,N*6C
$VDDBT,,f,,M,,F*2D
$VDDPT,,,*7E
!AIVDO,1,1,,,18JT@h303kaC>4dDbBLP5h5N05P`,0*26
$HEHDT,001.7,T*29
$HEROT,-006.5,A*05
$GPZDA,121048.00,09,05,2014,00,00*63
$GPDTM,W84,,0.0,N,0.0,E,+0.0,W84*44
$GPAPB,A,A,,,N,,,,T,,,T,,,D*62
$GPRMB,A,,,,,,,,,,,,,D*4F
$HEHDT,001.7,T*29
$HEROT,-006.5,A*05
$RATTM,02,12.52,302.19,T,9.1,246.4,T,12.16,6.04,N,,T,,121056.00,M*0F
$RATTM,03,8.23,309.99,T,0.9,89.0,T,6.34,13.01,N,,T,,121056.00,M*00
$RATTM,05,9.47,339.62,T,7.6,25.8,T,2.13,31.44,N,,T,,121056.00,M*04
!AIVDO,1,1,,B,18JT@h303kaC>4dDbBLP5h5N00S0,0*32
$HEHDT,001.6,T*28
$HEROT,-006.6,A*06
$IIRSA,-4.0,A,0.0,A,A*04
$WIMWV,359.0,R,15.2,M,A*19
$HEHDT,001.6,T*28
$HEROT,-006.7,A*07
$SDDPT,195.0,0.0,500.0*5D
$PJRCU,SD,195.0,0.0,500.0,,3,AFT*23
$PJRCU,SD,,0.0,500.0FWD*19
$PJRCS,DPT,195.0,0.0,500.0,,3,AFT*72
$GPGGA,121047.70,3606.4502,N,13001.6674,E,2,11,01,+0054,M,+025,M,07,0732*41
$ERRPM,E,0,162,,A*75
$GPRMC,121047.70,A,3606.4502,N,13001.6674,E,024.3,002.3,090514,08.,W,D*21
$GPVTG,002.3,T,002.3,M,024.3,N,045.0,K,D*22
$HEHDT,001.6,T*28
$HEROT,-006.6,A*06
$VDVBW,022.66,,A,023.90,-000.94,V,,V,-000.94,A*59
$VDVLW,390.99,N,92.31,N*6C
$VDDBT,,f,,M,,F*2D
$VDDPT,,,*7E
$HEHDT,001.6,T*28
$HEROT,-006.8,A*08
$GPZDA,121049.00,09,05,2014,00,00*62
$GPDTM,W84,,0.0,N,0.0,E,+0.0,W84*44
$GPAPB,A,A,,,N,,,,T,,,T,,,D*62
$GPRMB,A,,,,,,,,,,,,,D*4F
!AIVDM,1,1,,B,4h4<gWiuqDd:ia@E`@DGEVw000S:,0*25
$HEHDT,001.5,T*2B
$HEROT,-006.8,A*08
!AIVDO,1,1,,,18JT@h303kaC>4jDbBeP5h5P05P`,0*1F
$HEHDT,001.5,T*2B
$HEROT,-006.9,A*09
$IIRSA,-4.0,A,0.0,A,A*04
$WIMWV,359.0,R,15.1,M,A*1A
$HEHDT,001.5,T*2B
$HEROT,-006.9,A*09
!AIVDM,1,1,,B,19N`0@0uisaCa`dDj4K7r6Bv0@Mg,0*27
$SDDPT,195.0,0.0,500.0*5D
$PJRCU,SD,195.0,0.0,500.0,,3,AFT*23
$PJRCU,SD,,0.0,500.0FWD*19
$PJRCS,DPT,195.0,0.0,500.0,,3,AFT*72
$RATTM,09,19.09,200.53,T,7.7,216.6,T,3.32,-36.38,N,,T,,121048.00,M*2B
$RATTM,11,13.88,199.47,T,0.0,299.8,T,4.04,-32.84,N,,T,,121048.00,M*2F
$GPGGA,121048.70,3606.4570,N,13001.6677,E,2,11,01,+0054,M,+025,M,08,0732*47
$GPRMC,121048.70,A,3606.4570,N,13001.6677,E,024.3,002.2,090514,08.,W,D*29
$GPVTG,002.2,T,002.2,M,024.3,N,045.0,K,D*22
$ERRPM,E,0,161,,A*76
$HEHDT,001.5,T*2B
$HEROT,-007.0,A*01
$RATTM,92,19.10,201.01,T,7.7,207.4,T,4.17,-35.53,N,,T,,121058.00,M*2A
$RATTM,100,13.88,200.04,T,0.0,295.3,T,4.18,-32.79,N,,T,,121058.00,M*13
$RATTM,01,3.35,151.84,T,1.2,261.3,T,1.85,-6.85,N,,T,,121058.00,M*26
$VDVBW,022.66,,A,023.90,-000.94,V,,V,-000.94,A*59
$VDVLW,390.99,N,92.31,N*6C
$VDDBT,,f,,M,,F*2D
$VDDPT,,,*7E
$HEHDT,001.4,T*2A
$HEROT,-007.0,A*01
!AIVDO,1,1,,A,18JT@h303kaC>4pDbBv@5h5R0<1q,0*3C
$GPZDA,121050.00,09,05,2014,00,00*6A
$GPDTM,W84,,0.0,N,0.0,E,+0.0,W84*44
$GPAPB,A,A,,,N,,,,T,,,T,,,D*62
$GPRMB,A,,,,,,,,,,,,,D*4F
$HEHDT,001.4,T*2A
$HEROT,-007.2,A*03
$RATTM,02,12.52,302.26,T,9.1,246.4,T,12.16,6.00,N,,T,,121058.00,M*09
$RATTM,03,8.22,309.97,T,0.8,89.6,T,6.34,12.95,N,,T,,121058.00,M*0A
$RATTM,05,9.46,339.72,T,7.5,25.2,T,2.18,31.39,N,,T,,121058.00,M*02
$HEHDT,001.4,T*2A
$HEROT,-007.2,A*03
$IIRSA,-4.0,A,0.0,A,A*04
$WIMWV,359.0,R,15.1,M,A*1A
$HEHDT,001.4,T*2A
$HEROT,-007.3,A*02
$SDDPT,195.0,0.0,500.0*5D
$PJRCU,SD,195.0,0.0,500.0,,3,AFT*23
$PJRCU,SD,,0.0,500.0FWD*19
$PJRCS,DPT,195.0,0.0,500.0,,3,AFT*72
$GPGGA,121049.70,3606.4637,N,13001.6680,E,2,11,01,+0054,M,+025,M,07,0732*41
$ERRPM,E,0,163,,A*74
$GPRMC,121049.70,A,3606.4637,N,13001.6680,E,024.3,002.2,090514,08.,W,D*20
$GPVTG,002.2,T,002.2,M,024.3,N,045.0,K,D*22
$HEHDT,001.3,T*2D
$HEROT,-007.4,A*05
!AIVDO,1,1,,,18JT@h303kaC>4vDbC?05P3T05P`,0*02
$HEHDT,001.3,T*2D
$HEROT,-007.5,A*04
$GPZDA,121051.00,09,05,2014,00,00*6B
$GPDTM,W84,,0.0,N,0.0,E,+0.0,W84*44
$GPAPB,A,A,,,N,,,,T,,,T,,,D*62
$GPRMB,A,,,,,,,,,,,,,D*4F
$VDVBW,022.65,,A,023.90,-000.94,V,,V,-000.94,A*5A
$VDVLW,390.99,N,92.31,N*6C
$VDDBT,,f,,M,,F*2D
$VDDPT,,,*7E
$HEHDT,001.3,T*2D
$HEROT,-007.4,A*05
$HEHDT,001.3,T*2D
$HEROT,-007.5,A*04
$IIRSA,-4.0,A,0.0,A,A*04
$WIMWV,0.0,R,15.2,M,A*16
$HEHDT,001.2,T*2C
$HEROT,-007.4,A*05
$SDDPT,195.0,0.0,500.0*5D
$PJRCU,SD,195.0,0.0,500.0,,3,AFT*23
$PJRCU,SD,,0.0,500.0FWD*19
$PJRCS,DPT,195.0,0.0,500.0,,3,AFT*72
$RATTM,09,19.10,200.57,T,7.4,214.9,T,3.52,-36.52,N,,T,,121051.00,M*2B
$RATTM,11,13.90,199.48,T,0.0,299.3,T,4.04,-32.88,N,,T,,121051.00,M*26
$GPGGA,121050.70,3606.4705,N,13001.6682,E,2,11,01,+0054,M,+025,M,07,0732*4B
$GPRMC,121050.70,A,3606.4705,N,13001.6682,E,024.3,002.1,090514,08.,W,D*29
$ERRPM,E,0,162,,A*75
$GPVTG,002.1,T,002.1,M,024.3,N,045.0,K,D*22
$HEHDT,001.2,T*2C
$HEROT,-007.4,A*05
$RATTM,92,19.13,201.06,T,7.6,206.2,T,4.29,-35.61,N,,T,,121100.00,M*28
$RATTM,100,13.90,200.10,T,0.0,295.9,T,4.18,-32.82,N,,T,,121100.00,M*1D
$RATTM,01,3.37,151.79,T,1.2,261.4,T,1.85,-6.89,N,,T,,121100.00,M*21
!AIVDO,1,1,,,18JT@h303kaC>52DbCP05P3`05P`,0*1C
$HEHDT,001.2,T*2C
$HEROT,-007.4,A*05
$GPZDA,121052.00,09,05,2014,00,00*68
$GPDTM,W84,,0.0,N,0.0,E,+0.0,W84*44
$GPAPB,A,A,,,N,,,,T,,,T,,,D*62
$GPRMB,A,,,,,,,,,,,,,D*4F
$VDVBW,022.63,,A,023.90,-000.94,V,,V,-000.94,A*5C
$VDVLW,391.06,N,92.31,N*6B
$VDDBT,,f,,M,,F*2D
$VDDPT,,,*7E
!AIVDO,1,1,,B,18JT@h303kaC>52DbCP05P3`0L1q,0*57
$HEHDT,001.2,T*2C
$HEROT,-007.5,A*04
$RATTM,02,12.51,302.04,T,9.1,246.3,T,12.16,5.95,N,,T,,121100.00,M*0E
$RATTM,03,8.20,309.85,T,0.5,114.6,T,6.43,12.50,N,,T,,121100.00,M*36
$RATTM,05,9.44,339.66,T,7.5,24.6,T,2.21,31.40,N,,T,,121100.00,M*08
!AIVDM,1,1,,A,13Jw@T002:aBW56D`mhPm0eV08OD,0*6E
$HEHDT,001.1,T*2F
$HEROT,-007.5,A*04
$IIRSA,-4.0,A,0.0,A,A*04
$WIMWV,0.0,R,15.3,M,A*17
$HEHDT,001.1,T*2F
$HEROT,-007.6,A*07
$SDDPT,195.0,0.0,500.0*5D
$PJRCU,SD,195.0,0.0,500.0,,3,AFT*23
$PJRCU,SD,,0.0,500.0FWD*19
$PJRCS,DPT,195.0,0.0,500.0,,3,AFT*72
$GPGGA,121051.70,3606.4772,N,13001.6684,E,2,11,01,+0054,M,+025,M,08,0732*43
$ERRPM,E,0,162,,A*75
$GPRMC,121051.70,A,3606.4772,N,13001.6684,E,024.3,002.1,090514,08.,W,D*2E
$GPVTG,002.1,T,002.1,M,024.3,N,045.0,K,D*22
$HEHDT,001.1,T*2F
$HEROT,-007.6,A*07
!AIVDM,1,1,,A,144c:HPP1i9AUn`DIOu0KWS`05P`,0*60
$HEHDT,001.1,T*2F
$HEROT,-007.6,A*07
$GPZDA,121053.00,09,05,2014,00,00*69
$GPDTM,W84,,0.0,N,0.0,E,+0.0,W84*44
$GPAPB,A,A,,,N,,,,T,,,T,,,D*62
$GPRMB,A,,,,,,,,,,,,,D*4F
!AIVDO,1,1,,,18JT@h303kaC>58DbCi05@3b05P`,0*3D
$VDVBW,022.63,,A,023.90,-000.94,V,,V,-000.94,A*5C
$VDVLW,391.06,N,92.31,N*6B
$VDDBT,,f,,M,,F*2D
$VDDPT,,,*7E
$HEHDT,001.0,T*2E
$HEROT,-007.6,A*07
!AIVDM,1,1,,B,19NS=A001gaDnetE>TGofV9f05P`,0*1D
$HEHDT,001.0,T*2E
$HEROT,-007.6,A*07
!AIVDM,1,1,,A,162??R001p9B>d8DNAIhk@af1hOs,0*3A
$IIRSA,-4.0,A,0.0,A,A*04
$WIMWV,0.0,R,15.3,M,A*17
$HEHDT,001.0,T*2E
$HEROT,-007.6,A*07
$SDDPT,193.3,0.0,500.0*58
$PJRCU,SD,193.3,0.0,500.0,,3,AFT*26
$PJRCU,SD,,0.0,500.0FWD*19
$PJRCS,DPT,193.3,0.0,500.0,,3,AFT*77
$PJRCL,SD,9,V,V,V,V,V,V,V,V,V,V,V,V,V,V*69
$GPGGA,121052.70,3606.4839,N,13001.6687,E,2,11,01,+0054,M,+025,M,07,0732*4C
$GPRMC,121052.70,A,3606.4839,N,13001.6687,E,024.3,002.0,090514,08.,W,D*2F
$GPVTG,002.0,T,002.0,M,024.3,N,045.0,K,D*22
$ERRPM,E,0,161,,A*76
$RATTM,09,19.13,200.46,T,7.2,211.2,T,3.82,-36.47,N,,T,,121053.00,M*2B
$RATTM,11,13.91,199.41,T,0.0,299.8,T,4.04,-32.91,N,,T,,121053.00,M*2F
$HEHDT,000.9,T*26
$HEROT,-007.7,A*06
$RATTM,92,19.14,201.07,T,7.4,205.8,T,4.35,-35.81,N,,T,,121103.00,M*25
$RATTM,100,13.92,200.06,T,0.0,296.4,T,4.18,-32.86,N,,T,,121103.00,M*11
$RATTM,01,3.38,152.04,T,1.2,260.9,T,1.85,-6.93,N,,T,,121103.00,M*23
!AIVDM,1,1,,A,13P;>lh02?aCW`pDUDr8?FU`0d0p,0*6A
!AIVDM,1,1,,B,145=@EPP1Q9Dq>LDiG6QKwwf05P`,0*26
$HEHDT,000.9,T*26
$HEROT,-007.7,A*06
!AIVDO,1,1,,A,18JT@h303kaC>5>DbD1h5@3d0HPE,0*23
$GPZDA,121054.00,09,05,2014,00,00*6E
$GPDTM,W84,,0.0,N,0.0,E,+0.0,W84*44
$GPAPB,A,A,,,N,,,,T,,,T,,,D*62
$GPRMB,A,,,,,,,,,,,,,D*4F
$VDVBW,022.63,,A,023.90,-000.94,V,,V,-000.94,A*5C
$VDVLW,391.06,N,92.39,N*63
$VDDBT,,f,,M,,F*2D
$VDDPT,,,*7E
$HEHDT,000.9,T*26
$HEROT,-007.8,A*09
$RATTM,02,12.50,302.02,T,9.1,246.3,T,12.17,5.91,N,,T,,121103.00,M*0F
$RATTM,03,8.20,309.78,T,0.5,134.1,T,6.45,12.32,N,,T,,121103.00,M*30
$RATTM,05,9.43,339.62,T,7.3,22.9,T,2.37,31.09,N,,T,,121103.00,M*0D
$HEHDT,000.9,T*26
$HEROT,-007.9,A*08
$IIRSA,-4.0,A,0.0,A,A*04
$WIMWV,0.0,R,15.4,M,A*10
$HEHDT,000.8,T*27
$HEROT,-007.9,A*08
!AIVDM,1,1,,B,16Sg:4PP0?aCGETD`O?bjgwd2<04,0*41
!AIVDM,1,1,,B,16Tlvt0P009@GP0DVhId=?wgr0SP,0*22
!AIVDM,1,1,,A,16SeUu801J9A96vDnKrMjc3f08Pb,0*7D
$SDDPT,193.3,0.0,500.0*58
$PJRCU,SD,193.3,0.0,500.0,,3,AFT*26
$PJRCU,SD,,0.0,500.0FWD*19
$PJRCS,DPT,193.3,0.0,500.0,,3,AFT*77
$GPGGA,121053.70,3606.4907,N,13001.6689,E,2,11,01,+0054,M,+025,M,07,0732*4F
$ERRPM,E,0,162,,A*75
$GPRMC,121053.70,A,3606.4907,N,13001.6689,E,024.3,002.0,090514,08.,W,D*2C
$GPVTG,002.0,T,002.0,M,024.3,N,044.9,K,D*2A
$HEHDT,000.8,T*27
$HEROT,-007.9,A*08
$HEHDT,000.8,T*27
$HEROT,-008.0,A*0E
!AIVDM,1,1,,A,16ShiPPP019@DmBDW01CsOwh0<1<,0*43
!AIVDM,1,1,,A,4h4<hjiuqDd:o9@mCpDT:n100000,0*0A
!AIVDO,1,1,,,18JT@h303kaC>5BDbDBh503f05P`,0*47
!AIVDM,1,1,,B,404<hjQuqDd:o9@NN0DbLiQ00000,0*20
$GPZDA,121055.00,09,05,2014,00,00*6F
$GPDTM,W84,,0.0,N,0.0,E,+0.0,W84*44
$GPAPB,A,A,,,N,,,,T,,,T,,,D*62
$GPRMB,A,,,,,,,,,,,,,D*4F
!AIVDM,1,1,,A,16ShL90000a@GJDDVj7001Ih0D10,0*2D
$HEHDT,000.7,T*28
$HEROT,-008.0,A*0E
$VDVBW,022.64,,A,023.90,-000.94,V,,V,-000.94,A*5B
$VDVLW,391.06,N,92.39,N*63
$VDDBT,,f,,M,,F*2D
$VDDPT,,,*7E
!AIVDM,1,1,,B,162??VP01haCgopEDQqotVGh00SE,0*70
!AIVDM,1,1,,A,16Sm560P01a@Qu`DbHbJ6p3f2<1k,0*19
$HEHDT,000.7,T*28
$HEROT,-008.1,A*0F
!AIVDM,1,1,,A,18JTHT?P009@RnTDDovWa?wh05P`,0*69
$IIRSA,-4.0,A,0.0,A,A*04
$WIMWV,0.0,R,15.6,M,A*12
$HEHDT,000.7,T*28
$HEROT,-008.1,A*0F
$SDDPT,193.3,0.0,500.0*58
$PJRCU,SD,193.3,0.0,500.0,,3,AFT*26
$PJRCU,SD,,0.0,500.0FWD*19
$PJRCS,DPT,193.3,0.0,500.0,,3,AFT*77
$GPGGA,121054.70,3606.4974,N,13001.6692,E,2,11,01,+0054,M,+025,M,08,0732*49
$GPRMC,121054.70,A,3606.4974,N,13001.6692,E,024.3,001.9,090514,08.,W,D*2F
$GPVTG,001.9,T,001.9,M,024.3,N,044.9,K,D*2A
$RATTM,09,19.14,200.42,T,6.8,206.6,T,4.21,-36.47,N,,T,,121055.00,M*29
$ERRPM,E,0,162,,A*75
$RATTM,11,13.93,199.36,T,0.0,301.0,T,4.04,-32.96,N,,T,,121055.00,M*24
$HEHDT,000.6,T*29
$HEROT,-008.2,A*0C
$RATTM,92,19.16,201.06,T,7.2,204.6,T,4.47,-35.92,N,,T,,121105.00,M*2E
$RATTM,100,13.94,200.03,T,0.0,296.7,T,4.18,-32.90,N,,T,,121105.00,M*10
$RATTM,01,3.40,152.18,T,1.2,261.2,T,1.85,-6.98,N,,T,,121105.00,M*26
$HEHDT,000.6,T*29
$HEROT,-008.2,A*0C
!AIVDM,1,1,,A,16Sohv001d9AIF0Dh=56QUEj0@QJ,0*43
!AIVDO,1,1,,,18JT@h303kaC>5FDbDSP503h05P`,0*64
$GPZDA,121056.00,09,05,2014,00,00*6C
$GPDTM,W84,,0.0,N,0.0,E,+0.0,W84*44
$GPAPB,A,A,,,N,,,,T,,,T,,,D*62
$GPRMB,A,,,,,,,,,,,,,D*4F
$HEHDT,000.6,T*29
$HEROT,-008.3,A*0D
!AIVDM,1,1,,B,16T0M1PP009@H42DVdq@0?wkr5P`,0*2E
!AIVDO,1,1,,B,18JT@h303kaC>5FDbDSP503h0@QW,0*65
$VDVBW,022.65,,A,023.90,-000.94,V,,V,-000.94,A*5A
$VDVLW,391.06,N,92.39,N*63
$VDDBT,,f,,M,,F*2D
$VDDPT,,,*7E
$RATTM,02,12.50,301.84,T,9.1,246.1,T,12.17,5.84,N,,T,,121105.00,M*02
$RATTM,03,8.19,309.70,T,0.5,153.2,T,6.48,12.14,N,,T,,121105.00,M*3F
$RATTM,05,9.41,339.70,T,7.2,22.0,T,2.45,30.88,N,,T,,121105.00,M*0F
$HEHDT,000.6,T*29
$HEROT,-008.4,A*0A
$IIRSA,-4.0,A,0.0,A,A*04
$WIMWV,8.0,R,15.4,M,A*18
$HEHDT,000.5,T*2A
$HEROT,-008.4,A*0A
$SDDPT,220.0,0.0,500.0*50
$PJRCU,SD,220.0,0.0,500.0,,3,AFT*2E
$PJRCU,SD,,0.0,500.0FWD*19
$PJRCS,DPT,220.0,0.0,500.0,,3,AFT*7F
$GPGGA,121055.70,3606.5042,N,13001.6694,E,2,11,01,+0054,M,+025,M,07,0732*4C
$ERRPM,E,0,162,,A*75
$GPRMC,121055.70,A,3606.5042,N,13001.6694,E,024.3,001.9,090514,08.,W,D*25
$GPVTG,001.9,T,001.9,M,024.3,N,044.9,K,D*2A
$HEHDT,000.5,T*2A
$HEROT,-008.4,A*0A
$AIALR,,006,V,V,general failure*7B
$AIALR,,,,,*7B
$HEHDT,000.5,T*2A
$HEROT,-008.4,A*0A
$GPZDA,121057.00,09,05,2014,00,00*6D
$GPDTM,W84,,0.0,N,0.0,E,+0.0,W84*44
$GPAPB,A,A,,,N,,,,T,,,T,,,D*62
$GPRMB,A,,,,,,,,,,,,,D*4F
$HEHDT,000.5,T*2A
$HEROT,-008.4,A*0A
!AIVDO,1,1,,,18JT@h303kaC>5JDbDl@4h3j05P`,0*1C
$VDVBW,022.66,,A,023.90,-000.94,V,,V,-000.94,A*59
$VDVLW,391.06,N,92.39,N*63
$VDDBT,,f,,M,,F*2D
$IIRSA,-4.0,A,0.0,A,A*04
$VDDPT,,,*7E
$HEHDT,000.4,T*2B
$HEROT,-008.5,A*0B
!AIVDM,1,1,,B,16SrLn0P1w9CUadDS@wbgpOh05P`,0*6A
$WIMWV,0.0,R,15.4,M,A*10
$HEHDT,000.4,T*2B
$HEROT,-008.6,A*08
$SDDPT,220.0,0.0,500.0*50
$PJRCU,SD,220.0,0.0,500.0,,3,AFT*2E
$PJRCU,SD,,0.0,500.0FWD*19
$PJRCS,DPT,220.0,0.0,500.0,,3,AFT*7F
$GPGGA,121056.70,3606.5109,N,13001.6695,E,2,11,01,+0054,M,+025,M,07,0732*40
$GPRMC,121056.70,A,3606.5109,N,13001.6695,E,024.3,001.8,090514,08.,W,D*28
$GPVTG,001.8,T,001.8,M,024.3,N,044.9,K,D*2A
$RATTM,09,19.17,200.41,T,6.7,200.9,T,4.61,-36.22,N,,T,,121057.00,M*2A
$ERRPM,E,0,161,,A*76
$RATTM,11,13.94,199.33,T,0.0,301.8,T,4.04,-32.99,N,,T,,121057.00,M*23
$HEHDT,000.4,T*2B
$HEROT,-008.7,A*09
!AIVDM,1,1,,A,1815?IR013aBSJHDOO>Glmin0<2U,0*1F
$RATTM,92,19.16,201.06,T,7.2,204.6,T,4.47,-35.92,N,,T,,121107.00,M*2C
$RATTM,100,13.94,200.03,T,0.0,296.7,T,4.18,-32.90,N,,T,,121107.00,M*12
$RATTM,01,3.40,152.18,T,1.2,261.2,T,1.85,-6.98,N,,T,,121107.00,M*24
$HEHDT,000.3,T*2C
$HEROT,-008.7,A*09
$GPZDA,121058.00,09,05,2014,00,00*62
$GPDTM,W84,,0.0,N,0.0,E,+0.0,W84*44
$GPAPB,A,A,,,N,,,,T,,,T,,,D*62
$GPRMB,A,,,,,,,,,,,,,D*4F
!AIVDO,1,1,,A,18JT@h303kaC>5NDbE5@4h1l05P`,0*05
!AIVDM,1,1,,B,16UDRN8P009@R8rDbHSpP?wn0D1@,0*18
!AIVDM,2,1,7,A,56T0`?028m1?7;KS;H1=18TpN0@DhTpV36K8000000000400,0*27
!AIVDM,2,2,7,A,00000000000000000000000,2*23
$HEHDT,000.3,T*2C
$HEROT,-008.8,A*06
$VDVBW,022.68,,A,023.90,-000.94,V,,V,-000.94,A*57
$VDVLW,391.06,N,92.39,N*63
$VDDBT,,f,,M,,F*2D
$VDDPT,,,*7E
$RATTM,02,12.50,301.84,T,9.1,246.1,T,12.17,5.84,N,,T,,121107.00,M*00
$RATTM,03,8.19,309.70,T,0.5,153.2,T,6.48,12.14,N,,T,,121107.00,M*3D
$RATTM,05,9.41,339.70,T,7.2,22.0,T,2.45,30.88,N,,T,,121107.00,M*0D
!AIVDM,1,1,,B,16U@Hn8P109A7mPDQ3gGAgwn2l10,0*6C
!AIVDM,1,1,,B,16T0UdP0009@GIlDVht;UGOn2D19,0*74
!AIVDM,1,1,,B,16ShuW`0009@UcLD`BQ002Wn05P`,0*61
!AIVDM,1,1,,A,15QHtH002`aBw=4DIaV`Q6kn00SB,0*21
$HEHDT,000.3,T*2C
$HEROT,-008.7,A*09
$IIRSA,-4.0,A,0.0,A,A*04
$WIMWV,0.0,R,15.7,M,A*13
!AIVDM,1,1,,A,16Solp001o9@I0lEBlI64m5n00Rv,0*01
$HEHDT,000.2,T*2D
$HEROT,-008.8,A*06
$SDDPT,220.0,0.0,500.0*50
$PJRCU,SD,220.0,0.0,500.0,,3,AFT*2E
$PJRCU,SD,,0.0,500.0FWD*19
$PJRCS,DPT,220.0,0.0,500.0,,3,AFT*7F
$GPGGA,121057.70,3606.5177,N,13001.6697,E,2,11,01,+0054,M,+025,M,08,0732*45
$GPRMC,121057.70,A,3606.5177,N,13001.6697,E,024.2,001.7,090514,08.,W,D*2C
$ERRPM,E,0,162,,A*75
$GPVTG,001.7,T,001.7,M,024.2,N,044.9,K,D*2B
$HEHDT,000.2,T*2D
$HEROT,-008.8,A*06
!AIVDM,1,1,,B,16SfgS?P009@W5TDw7qSU?wn2Kww,0*2F
$PJRC,33,11,1405091211*2D
!AIVDM,1,1,,A,404<hkAuqDd:saG>R4ELQaw005Pd,0*34
!AIVDM,1,1,,A,19NS0V001I9@vA<DdO<8h6ul0D4D,0*77
$HEHDT,000.2,T*2D
$HEROT,-008.8,A*06
!AIVDO,1,1,,,18JT@h303kaC>5RDbEF@4P1n05Pd,0*15
!AIVDM,1,1,,A,404<gWQuqDd:sa>UqtD6faOP0807,0*4C
!AIVDM,1,1,,B,16T`J@0P009A4<tDUpjLqOv02@09,0*3C
!AIVDM,1,1,,B,1815=k@01paFjkTDLIO2>Qqn0PSa,0*23
$GPZDA,121059.00,09,05,2014,00,00*63
$GPDTM,W84,,0.0,N,0.0,E,+0.0,W84*44
$GPAPB,A,A,,,N,,,,T,,,T,,,D*62
$GPRMB,A,,,,,,,,,,,,,D*4F
$HEHDT,000.1,T*2E
$HEROT,-008.8,A*06
!AIVDM,1,1,,B,13P;>lh02?aCWTlDUD?`?FUj0h1t,0*57
$IIRSA,-4.0,A,0.0,A,A*04
$HEHDT,000.1,T*2E
$HEROT,-008.9,A*07
$VDVBW,022.67,,A,023.90,-000.94,V,,V,-000.94,A*58
$VDVLW,391.06,N,92.39,N*63
$VDDBT,,f,,M,,F*2D
$VDDPT,,,*7E
$WIMWV,4.2,R,15.9,M,A*1B
$HEHDT,000.1,T*2E
$HEROT,-008.9,A*07
!AIVDM,1,1,,B,16Sew4PP009C61rDAQKP0?v000SG,0*4A
$SDDPT,220.0,0.0,500.0*50
$PJRCU,SD,220.0,0.0,500.0,,3,AFT*2E
$PJRCU,SD,,0.0,500.0FWD*19
$PJRCS,DPT,220.0,0.0,500.0,,3,AFT*7F
$GPGGA,121058.70,3606.5244,N,13001.6699,E,2,11,01,+0054,M,+025,M,07,0732*48
$GPRMC,121058.70,A,3606.5244,N,13001.6699,E,024.2,001.7,090514,08.,W,D*2E
$GPVTG,001.7,T,001.7,M,024.2,N,044.9,K,D*2B
$RATTM,09,19.17,200.41,T,6.7,200.9,T,4.61,-36.22,N,,T,,121059.00,M*24
$RATTM,11,13.94,199.33,T,0.0,301.8,T,4.04,-32.99,N,,T,,121059.00,M*2D
$ERRPM,E,0,161,,A*76
$HEHDT,000.0,T*2F
$HEROT,-009.0,A*0F
!AIVDM,1,1,,A,19N`0@0uQraCaSbDj3:WrVCB25Ph,0*0E
!AIVDM,2,1,8,B,56T`J@000003Hhtt000P4q=F0s2s80000000000o00000400,0*0F
!AIVDM,2,2,8,B,00000000000000000000008,2*27
!AIVDO,1,1,,B,18JT@h303jaC>5VDbEW04@00080c,0*16
$RATTM,92,19.18,201.05,T,7.2,204.9,T,4.46,-36.07,N,,T,,121109.00,M*2E
$RATTM,100,13.95,200.01,T,0.0,296.8,T,4.19,-32.93,N,,T,,121109.00,M*12
$RATTM,01,3.41,152.28,T,1.2,261.7,T,1.85,-7.02,N,,T,,121109.00,M*2F
$HEHDT,000.0,T*2F
$HEROT,-009.1,A*0E
$GPZDA,121100.00,09,05,2014,00,00*6E
$GPDTM,W84,,0.0,N,0.0,E,+0.0,W84*44
$GPAPB,A,A,,,N,,,,T,,,T,,,D*62
$GPRMB,A,,,,,,,,,,,,,D*4F
$HEHDT,000.0,T*2F
$HEROT,-009.1,A*0E
!AIVDM,1,1,,B,16T0Q=00009@Ik4DVu`@08b3rH0d,0*35
!AIVDM,1,1,,A,17baOD001J9Ca1DE?jE18A400@0h,0*0C
!AIVDM,1,1,,A,16ShVJP0009@GhvDVglKuad2280l,0*00
$RATTM,02,12.49,301.81,T,9.1,246.1,T,12.17,5.79,N,,T,,121109.00,M*01
$RATTM,03,8.18,309.63,T,0.6,156.8,T,6.48,12.07,N,,T,,121109.00,M*3E
$RATTM,05,9.41,339.60,T,7.2,22.1,T,2.43,30.91,N,,T,,121109.00,M*0D
$HEHDT,000.0,T*2F
$HEROT,-009.1,A*0E
!AIVDM,1,1,,A,36T<5t@Oi`a@VA<Dvqecea`023m@,0*3B
!AIVDM,1,1,,B,17b<Sh001?9AkGtDLBUnPln40H0r,0*45
$VDVBW,022.65,,A,023.90,-000.94,V,,V,-000.94,A*5A
$IIRSA,-4.0,A,0.0,A,A*04
$VDVLW,391.06,N,92.39,N*63
$VDDBT,,f,,M,,F*2D
$VDDPT,,,*7E
$WIMWV,8.2,R,15.8,M,A*16
$HEHDT,359.9,T*29
$HEROT,-009.2,A*0D
$SDDPT,220.0,0.0,500.0*50
$PJRCU,SD,220.0,0.0,500.0,,3,AFT*2E
$PJRCU,SD,,0.0,500.0FWD*19
$PJRCS,DPT,220.0,0.0,500.0,,3,AFT*7F
$GPGGA,121059.70,3606.5311,N,13001.6700,E,2,11,01,+0054,M,+025,M,07,0732*49
$ERRPM,E,0,162,,A*75
$GPRMC,121059.70,A,3606.5311,N,13001.6700,E,024.2,001.6,090514,08.,W,D*2E
$GPVTG,001.6,T,001.6,M,024.2,N,044.9,K,D*2B
$HEHDT,359.9,T*29
$HEROT,-009.1,A*0E
!AIVDO,1,1,,,18JT@h303jaC>5`DbEp04@1p05Pd,0*6E
$HEHDT,359.9,T*29
$HEROT,-009.1,A*0E
$GPZDA,121101.00,09,05,2014,00,00*6F
$GPDTM,W84,,0.0,N,0.0,E,+0.0,W84*44
$GPAPB,A,A,,,N,,,,T,,,T,,,D*62
$GPRMB,A,,,,,,,,,,,,,D*4F
$HEHDT,359.8,T*28
$HEROT,-009.1,A*0E
$HEHDT,359.8,T*28
$HEROT,-009.1,A*0E
!AIVDM,1,1,,A,4h4<iTiuqDd;19>woHEO`ii00000,0*05
!AIVDM,1,1,,B,13Jw@T002:aBW9nD`o1@m0d005Pd,0*27
!AIVDM,1,1,,B,16Swrug0009@GcnDVg>d39V425Pd,0*11
$IIRSA,-4.0,A,0.0,A,A*04
$WIMWV,8.0,R,15.4,M,A*18
$VDVBW,022.64,,A,023.90,-000.94,V,,V,-000.94,A*5B
$VDVLW,391.06,N,92.39,N*63
$VDDBT,,f,,M,,F*2D
$VDDPT,,,*7E
$HEHDT,359.8,T*28
$HEROT,-009.1,A*0E
$SDDPT,220.0,0.0,500.0*50
$PJRCU,SD,220.0,0.0,500.0,,3,AFT*2E
$PJRCU,SD,,0.0,500.0FWD*19
$PJRCS,DPT,220.0,0.0,500.0,,3,AFT*7F
$GPGGA,121100.70,3606.5379,N,13001.6701,E,2,11,01,+0054,M,+025,M,08,0732*44
$ERRPM,E,0,162,,A*75
$GPRMC,121100.70,A,3606.5379,N,13001.6701,E,024.2,001.5,090514,08.,W,D*2F
$GPVTG,001.5,T,001.5,M,024.2,N,044.9,K,D*2B
$RATTM,09,19.19,200.43,T,6.9,199.3,T,4.70,-36.01,N,,T,,121101.00,M*22
$RATTM,11,13.96,199.31,T,0.0,305.4,T,4.04,-33.03,N,,T,,121101.00,M*2B
$HEHDT,359.7,T*27
$HEROT,-009.1,A*0E
!AIVDM,1,1,,B,16T0`j00009@DrlDW1GbEPn6081j,0*76
!AIVDO,1,1,,,18JT@h303jaC>5dDbF8h400405Pd,0*4C
!AIVDM,1,1,,A,16T0`?00029@O<fD``QAc2t60H1l,0*16
!AIVDM,1,1,,B,16Sf4WgP1:9ACprDVjaGQOv6281n,0*24
$RATTM,92,19.21,200.95,T,7.2,203.4,T,4.57,-35.99,N,,T,,121111.00,M*2B
$RATTM,100,13.97,199.91,T,0.0,296.5,T,4.18,-32.98,N,,T,,121111.00,M*14
$RATTM,01,3.43,152.60,T,1.2,261.7,T,1.85,-7.06,N,,T,,121111.00,M*2C
$HEHDT,359.7,T*27
$HEROT,-009.1,A*0E
$GPZDA,121102.00,09,05,2014,00,00*6C
$GPDTM,W84,,0.0,N,0.0,E,+0.0,W84*44
$GPAPB,A,A,,,N,,,,T,,,T,,,D*62
$GPRMB,A,,,,,,,,,,,,,D*4F
$HEHDT,359.7,T*27
$HEROT,-009.2,A*0D
!AIVDO,1,1,,A,18JT@h303jaC>5dDbF8h40040<1r,0*73
$HEHDT,359.6,T*26
$HEROT,-009.2,A*0D
$RATTM,02,12.49,301.71,T,9.2,246.0,T,12.17,5.74,N,,T,,121111.00,M*08
$RATTM,03,8.17,309.70,T,0.5,126.3,T,6.44,12.26,N,,T,,121111.00,M*3A
$RATTM,05,9.39,339.40,T,7.0,20.1,T,2.59,30.56,N,,T,,121111.00,M*09
$IIRSA,-4.0,A,0.0,A,A*04
$WIMWV,9.5,R,15.4,M,A*1C
$HEHDT,359.6,T*26
$HEROT,-009.2,A*0D
$VDVBW,022.64,,A,023.90,-000.94,V,,V,-000.94,A*5B
$VDVLW,391.06,N,92.39,N*63
$VDDBT,,f,,M,,F*2D
$VDDPT,,,*7E
$SDDPT,220.0,0.0,500.0*50
$PJRCU,SD,220.0,0.0,500.0,,3,AFT*2E
$PJRCU,SD,,0.0,500.0FWD*19
$PJRCS,DPT,220.0,0.0,500.0,,3,AFT*7F
$GPGGA,121101.70,3606.5446,N,13001.6703,E,2,11,01,+0054,M,+025,M,07,0732*43
$ERRPM,E,0,162,,A*75
$GPRMC,121101.70,A,3606.5446,N,13001.6703,E,024.2,001.4,090514,08.,W,D*26
$GPVTG,001.4,T,001.4,M,024.2,N,044.9,K,D*2B
$HEHDT,359.6,T*26
$HEROT,-009.3,A*0C
$HEHDT,359.5,T*25
$HEROT,-009.3,A*0C
$GPZDA,121103.00,09,05,2014,00,00*6D
$GPDTM,W84,,0.0,N,0.0,E,+0.0,W84*44
$GPAPB,A,A,,,N,,,,T,,,T,,,D*62
$GPRMB,A,,,,,,,,,,,,,D*4F
!AIVDM,1,1,,A,16T8jl00jFaAFbhDM7:P7P9f0<vC,0*5E
!AIVDM,1,1,,A,145=@EPP1Q9DqD4DiGpQJwv80D03,0*7D
!AIVDM,1,1,,B,16SeUu801J9A95VDnLjeg:v800S8,0*74
!AIVDM,1,1,,A,19NS=A001gaDnbTE>SEog68:0H2U,0*2A
$HEHDT,359.5,T*25
$HEROT,-009.4,A*0B
!AIVDO,1,1,,,18JT@h303jaC>5fDbFIP3h0605Pd,0*5A
$HEHDT,359.5,T*25
$HEROT,-009.4,A*0B
$IIRSA,-4.0,A,0.0,A,A*04
$WIMWV,5.5,R,15.5,M,A*11
$HEHDT,359.5,T*25
$HEROT,-009.4,A*0B
$VDVBW,022.64,,A,023.90,-000.94,V,,V,-000.94,A*5B
$VDVLW,391.14,N,92.39,N*60
$VDDBT,,f,,M,,F*2D
$VDDPT,,,*7E
$SDDPT,220.0,0.0,500.0*50
$PJRCU,SD,220.0,0.0,500.0,,3,AFT*2E
$PJRCU,SD,,0.0,500.0FWD*19
$PJRCS,DPT,220.0,0.0,500.0,,3,AFT*7F
$PJRCL,SD,9,V,V,V,V,V,V,V,V,V,V,V,V,V,V*69
$GPGGA,121102.70,3606.5513,N,13001.6703,E,2,11,01,+0054,M,+025,M,07,0732*41
$ERRPM,E,0,161,,A*76
$GPRMC,121102.70,A,3606.5513,N,13001.6703,E,024.2,001.4,090514,08.,W,D*24
$GPVTG,001.4,T,001.4,M,024.2,N,044.9,K,D*2B
!AIVDM,1,1,,A,16Set1PP00a@><FD`2lop?v82@2C,0*20
$HEHDT,359.4,T*24
$HEROT,-009.4,A*0B
$RATTM,09,19.20,200.48,T,6.8,199.5,T,4.71,-36.16,N,,T,,121103.00,M*21
$RATTM,11,13.97,199.41,T,0.0,306.4,T,4.04,-33.06,N,,T,,121103.00,M*29
$HEHDT,359.4,T*24
$HEROT,-009.4,A*0B
$RATTM,92,19.22,200.97,T,7.0,203.1,T,4.62,-36.15,N,,T,,121113.00,M*2E
$RATTM,100,13.99,199.92,T,0.0,296.0,T,4.18,-33.01,N,,T,,121113.00,M*1F
$RATTM,01,3.44,152.58,T,1.0,273.1,T,1.84,-7.18,N,,T,,121113.00,M*2B
$GPZDA,121104.00,09,05,2014,00,00*6A
$GPDTM,W84,,0.0,N,0.0,E,+0.0,W84*44
$GPAPB,A,A,,,N,,,,T,,,T,,,D*62
$GPRMB,A,,,,,,,,,,,,,D*4F
$HEHDT,359.4,T*24
$HEROT,-009.4,A*0B
!AIVDM,1,1,,A,16Tlvt0P009@GP6DVhKd2Ov;rD18,0*79
!AIVDO,1,1,,B,18JT@h303jaC>5hDbFbP3P08083;,0*3A
!AIVDM,1,1,,A,16Sg:4PP0;aCGDBD`OB:mwv820Sm,0*08
!AIVDM,1,1,,B,162??R001p9B>hdDNB`@kP`<1d1`,0*41
$HEHDT,359.3,T*23
$HEROT,-009.5,A*0A
$RATTM,02,12.49,301.44,T,9.2,245.8,T,12.17,5.67,N,,T,,121113.00,M*05
$RATTM,03,8.15,309.35,T,0.5,141.2,T,6.45,12.12,N,,T,,121113.00,M*3D
$IIRSA,-4.0,A,0.0,A,A*04
$RATTM,05,9.38,339.50,T,6.9,18.2,T,2.73,30.26,N,,T,,121113.00,M*04
$WIMWV,8.9,R,15.5,M,A*10
$HEHDT,359.3,T*23
$HEROT,-009.6,A*09
$SDDPT,220.0,0.0,500.0*50
$PJRCU,SD,220.0,0.0,500.0,,3,AFT*2E
$PJRCU,SD,,0.0,500.0FWD*19
$PJRCS,DPT,220.0,0.0,500.0,,3,AFT*7F
$VDVBW,022.64,,A,023.90,-000.94,V,,V,-000.94,A*5B
$VDVLW,391.14,N,92.39,N*60
$VDDBT,,f,,M,,F*2D
$VDDPT,,,*7E
$GPGGA,121103.70,3606.5581,N,13001.6705,E,2,11,01,+0054,M,+025,M,08,0732*42
$GPRMC,121103.70,A,3606.5581,N,13001.6705,E,024.2,001.3,090514,08.,W,D*2F
$ERRPM,E,0,162,,A*75
$GPVTG,001.3,T,001.3,M,024.2,N,044.9,K,D*2B
$HEHDT,359.3,T*23
$HEROT,-009.6,A*09
!AIVDM,1,1,,A,404<hjQuqDd;59@NN2DbLhi00000,0*43
!AIVDM,1,1,,B,4h4<hjiuqDd;59@mCvDT:n100000,0*54
!AIVDM,2,1,9,A,56ShVM000003?3<`4pLpvs>0`4pN0P4r222222=G00000400,0*2D
!AIVDM,2,2,9,A,00000000000000000000008,2*25
$HEHDT,359.2,T*22
$HEROT,-009.6,A*09
$GPZDA,121105.00,09,05,2014,00,00*6B
$GPDTM,W84,,0.0,N,0.0,E,+0.0,W84*44
$GPAPB,A,A,,,N,,,,T,,,T,,,D*62
$GPRMB,A,,,,,,,,,,,,,D*4F
$HEHDT,359.2,T*22
$HEROT,-009.5,A*0A
!AIVDO,1,1,,,18JT@h303jaC>5jDbFs@3c>:05Pd,0*75
!AIVDM,1,1,,B,15QHtH002`aBw9`DIa;8Q6j:05Pd,0*32
!AIVDM,1,1,,A,16Shk70P0p9A;nbDTD`oaOv<20SQ,0*16
!AIVDM,1,1,,A,4h4<hk1uqDd;59@GJfE5vVi00000,0*71
$HEHDT,359.2,T*22
$HEROT,-009.4,A*0B
$IIRSA,-4.0,A,0.0,A,A*04
$WIMWV,0.0,R,15.4,M,A*10
$HEHDT,359.1,T*21
$HEROT,-009.4,A*0B
!AIVDM,1,1,,B,16Sohv001d9AII8Dh;r6T5D<05Pd,0*6E
!AIVDM,1,1,,B,16SwpdP0009@GeFDVgI002N<20T0,0*75
$SDDPT,220.0,0.0,500.0*50
$PJRCU,SD,220.0,0.0,500.0,,3,AFT*2E
$PJRCU,SD,,0.0,500.0FWD*19
$PJRCS,DPT,220.0,0.0,500.0,,3,AFT*7F
$VDVBW,022.64,,A,023.90,-000.94,V,,V,-000.94,A*5B
$VDVLW,391.14,N,92.46,N*68
$VDDBT,,f,,M,,F*2D
$VDDPT,,,*7E
$GPGGA,121104.70,3606.5648,N,13001.6705,E,2,11,01,+0054,M,+025,M,07,0732*4C
$GPRMC,121104.70,A,3606.5648,N,13001.6705,E,024.2,001.2,090514,08.,W,D*2F
$GPVTG,001.2,T,001.2,M,024.2,N,044.8,K,D*2A
$ERRPM,E,0,162,,A*75
$HEHDT,359.1,T*21
$HEROT,-009.4,A*0B
$RATTM,09,19.23,200.36,T,6.8,198.2,T,4.81,-36.08,N,,T,,121105.00,M*2B
$RATTM,11,13.99,199.24,T,0.0,318.3,T,4.04,-33.10,N,,T,,121105.00,M*2D
$HEHDT,359.1,T*21
$HEROT,-009.4,A*0B
$RATTM,92,19.25,200.91,T,6.9,202.1,T,4.72,-36.24,N,,T,,121115.00,M*23
$RATTM,100,14.00,199.88,T,0.0,295.0,T,4.18,-33.06,N,,T,,121115.00,M*11
$RATTM,01,3.46,152.81,T,1.0,272.6,T,1.84,-7.22,N,,T,,121115.00,M*24
$GPZDA,121106.00,09,05,2014,00,00*68
$GPDTM,W84,,0.0,N,0.0,E,+0.0,W84*44
$GPAPB,A,A,,,N,,,,T,,,T,,,D*62
$GPRMB,A,,,,,,,,,,,,,D*4F
!AIVDO,1,1,,A,18JT@h303jaC>5lDbG<@3K><084@,0*1F
$HEHDT,359.0,T*20
$HEROT,-009.5,A*0A
!AIVDM,1,1,,A,144iWe001M9BWG8DUsq6u5V<0l1F,0*47
$HEHDT,359.0,T*20
$HEROT,-009.5,A*0A
$RATTM,02,12.48,301.53,T,9.2,245.7,T,12.17,5.62,N,,T,,121115.00,M*0E
$RATTM,03,8.14,309.39,T,0.5,137.5,T,6.44,12.11,N,,T,,121115.00,M*32
$IIRSA,-4.0,A,0.0,A,A*04
$RATTM,05,9.37,339.47,T,6.8,16.9,T,2.81,30.11,N,,T,,121115.00,M*06
$WIMWV,4.8,R,15.3,M,A*1B
$HEHDT,359.0,T*20
$HEROT,-009.6,A*09
$SDDPT,220.0,0.0,500.0*50
$PJRCU,SD,220.0,0.0,500.0,,3,AFT*2E
$PJRCU,SD,,0.0,500.0FWD*19
$PJRCS,DPT,220.0,0.0,500.0,,3,AFT*7F
$GPGGA,121105.70,3606.5715,N,13001.6705,E,2,11,01,+0054,M,+025,M,06,0732*45
$GPRMC,121105.70,A,3606.5715,N,13001.6705,E,024.2,001.1,090514,08.,W,D*24
$GPVTG,001.1,T,001.1,M,024.2,N,044.8,K,D*2A
!AIVDM,1,1,,A,16ShVC801:9A460DnCo6gUH>00S7,0*56
!AIVDM,1,1,,B,16Sg?70P0c9A=wHDc@@eugv>284Q,0*20
!AIVDM,1,1,,A,144d89001n9BO?8DJ?;RA1l<0<07,0*6D
$VDVBW,022.64,,A,023.90,-000.94,V,,V,-000.94,A*5B
$VDVLW,391.14,N,92.46,N*68
$VDDBT,,f,,M,,F*2D
$VDDPT,,,*7E
$HEHDT,358.9,T*28
$ERRPM,E,0,162,,A*75
$HEROT,-009.5,A*0A
$HEHDT,358.9,T*28
$HEROT,-009.6,A*09
$GPZDA,121107.00,09,05,2014,00,00*69
$GPDTM,W84,,0.0,N,0.0,E,+0.0,W84*44
$GPAPB,A,A,,,N,,,,T,,,T,,,D*62
$GPRMB,A,,,,,,,,,,,,,D*4F
!AIVDM,1,1,,A,162??VP01haCgj2EDPS7tVH@05Pd,0*4F
!AIVDO,1,1,,,18JT@h303jaC>5nDbGM03;>>05Pd,0*62
!AIVDM,1,1,,A,16UDRN8P009@R8`DbHbHawv@0<1@,0*2E
!AIVDM,1,1,,B,15R1qN002;aAhPRDHEu0FhFB0<4p,0*50
$HEHDT,358.9,T*28
$HEROT,-009.6,A*09
$HEHDT,358.8,T*29
$HEROT,-009.6,A*09
$IIRSA,-4.0,A,0.0,A,A*04
$WIMWV,8.4,R,15.1,M,A*19
!AIVDM,1,1,,A,16T<5t@OiVa@V:tDvr;<6In>2@54,0*1A
!AIVDM,1,1,,B,16Sf:DgP009@E>0DW5Iiwwv@25Pd,0*6F
$HEHDT,358.8,T*29
$HEROT,-009.6,A*09
$SDDPT,220.0,0.0,500.0*50
$PJRCU,SD,220.0,0.0,500.0,,3,AFT*2E
$PJRCU,SD,,0.0,500.0FWD*19
$PJRCS,DPT,220.0,0.0,500.0,,3,AFT*7F
$GPGGA,121106.70,3606.5783,N,13001.6705,E,2,11,01,+0054,M,+025,M,07,0732*48
$GPRMC,121106.70,A,3606.5783,N,13001.6705,E,024.2,001.0,090514,08.,W,D*29
$GPVTG,001.0,T,001.0,M,024.2,N,044.8,K,D*2A
!AIVDM,1,1,,A,16SrLn0P209CUMPDSA9bh`N<05Pd,0*34
!AIVDM,1,1,,A,16SfgS?P009@W5RDw7qCuOv@285=,0*3E
$HEHDT,358.8,T*29
$HEROT,-009.7,A*08
$ERRPM,E,0,162,,A*75
$RATTM,09,19.25,200.39,T,6.9,196.2,T,4.93,-35.92,N,,T,,121107.00,M*2C
$RATTM,11,14.00,199.28,T,0.0,330.3,T,4.04,-33.14,N,,T,,121107.00,M*2A
$VDVBW,022.64,,A,023.90,-000.94,V,,V,-000.94,A*5B
$VDVLW,391.14,N,92.46,N*68
$VDDBT,,f,,M,,F*2D
$VDDPT,,,*7E
$HEHDT,358.7,T*26
$HEROT,-009.8,A*07
!AIVDM,1,1,,B,1815?IR013aBSH<DONQWg5fB00Rq,0*2C
!AIVDO,1,1,,,18JT@h303jaC>5nDbGvP2c>@05Pd,0*1E
!AIVDM,1,1,,B,16SemK0P12aA@S<DaDi=tgvB20RJ,0*56
!AIVDO,1,1,,B,18JT@h303jaC>5nDbGvP2c>@085K,0*1B
$RATTM,92,19.25,200.91,T,6.9,202.1,T,4.72,-36.24,N,,T,,121117.00,M*21
$RATTM,100,14.00,199.88,T,0.0,295.0,T,4.18,-33.06,N,,T,,121117.00,M*13
$RATTM,01,3.46,152.81,T,1.0,272.6,T,1.84,-7.22,N,,T,,121117.00,M*26
$GPZDA,121108.00,09,05,2014,00,00*66
$GPDTM,W84,,0.0,N,0.0,E,+0.0,W84*44
$GPAPB,A,A,,,N,,,,T,,,T,,,D*62
$GPRMB,A,,,,,,,,,,,,,D*4F
$HEHDT,358.7,T*26
$HEROT,-009.9,A*06
!AIVDM,1,1,,B,19N`0@0vAraCaOBDj23WrFCT05Ph,0*2E
!AIVDM,1,1,,B,16Swqe`0009@?h0D`?@h08rB20Rw,0*70
$HEHDT,358.7,T*26
$HEROT,-010.0,A*07
$RATTM,02,12.48,301.53,T,9.2,245.7,T,12.17,5.62,N,,T,,121117.00,M*0C
$IIRSA,-4.0,A,0.0,A,A*04
$RATTM,03,8.14,309.39,T,0.5,137.5,T,6.44,12.11,N,,T,,121117.00,M*30
$RATTM,05,9.37,339.47,T,6.8,16.9,T,2.81,30.11,N,,T,,121117.00,M*04
!AIVDM,1,1,,B,16Solp001l9@I6LEBk@V2m4B00S;,0*2E
$WIMWV,6.8,R,15.1,M,A*1B
$HEHDT,358.6,T*27
$HEROT,-010.0,A*07
$SDDPT,220.0,0.0,500.0*50
$PJRCU,SD,220.0,0.0,500.0,,3,AFT*2E
$PJRCU,SD,,0.0,500.0FWD*19
$PJRCS,DPT,220.0,0.0,500.0,,3,AFT*7F
$GPGGA,121107.70,3606.5850,N,13001.6706,E,2,11,01,+0054,M,+025,M,07,0732*4B
$ERRPM,E,0,162,,A*75
$GPRMC,121107.70,A,3606.5850,N,13001.6706,E,024.2,000.9,090514,08.,W,D*22
$GPVTG,000.9,T,000.9,M,024.2,N,044.8,K,D*2A
$HEHDT,358.6,T*27
$HEROT,-010.0,A*07
$VDVBW,022.63,,A,023.90,-000.94,V,,V,-000.94,A*5C
$VDVLW,391.14,N,92.46,N*68
$VDDBT,,f,,M,,F*2D
$VDDPT,,,*7E
!AIVDM,1,1,,A,16T`J@0P009A4<lDUpidqOvD25Pd,0*30
$HEHDT,358.6,T*27
$HEROT,-010.0,A*07
$GPZDA,121109.00,09,05,2014,00,00*67
$GPDTM,W84,,0.0,N,0.0,E,+0.0,W84*44
$GPAPB,A,A,,,N,,,,T,,,T,,,D*62
$GPRMB,A,,,,,,,,,,,,,D*4F
!AIVDO,1,1,,,18JT@h3PCjaC>5nDbH?P2K>B05Pd,0*62
$HEHDT,358.5,T*24
$HEROT,-010.0,A*07
$HEHDT,358.5,T*24
$HEROT,-010.1,A*06
$IIRSA,-4.0,A,0.0,A,A*04
$WIMWV,6.7,R,15.0,M,A*15
$HEHDT,358.5,T*24
$HEROT,-010.1,A*06
$SDDPT,220.0,0.0,500.0*50
$PJRCU,SD,220.0,0.0,500.0,,3,AFT*2E
$PJRCU,SD,,0.0,500.0FWD*19
$PJRCS,DPT,220.0,0.0,500.0,,3,AFT*7F
$GPGGA,121108.70,3606.5917,N,13001.6706,E,2,11,01,+0054,M,+025,M,06,0732*47
$ERRPM,E,0,161,,A*76
$GPRMC,121108.70,A,3606.5917,N,13001.6706,E,024.2,000.8,090514,08.,W,D*2E
$GPVTG,000.8,T,000.8,M,024.2,N,044.8,K,D*2A
$HEHDT,358.4,T*25
$HEROT,-010.2,A*05
$RATTM,09,19.25,200.39,T,6.9,196.2,T,4.93,-35.92,N,,T,,121109.00,M*22
$RATTM,11,14.00,199.28,T,0.0,330.3,T,4.04,-33.14,N,,T,,121109.00,M*24
$VDVBW,022.63,,A,023.90,-000.94,V,,V,-000.94,A*5C
$VDVLW,391.14,N,92.46,N*68
$VDDBT,,f,,M,,F*2D
$VDDPT,,,*7E
$HEHDT,358.4,T*25
$HEROT,-010.2,A*05
$GPZDA,121110.00,09,05,2014,00,00*6F
$GPDTM,W84,,0.0,N,0.0,E,+0.0,W84*44
$GPAPB,A,A,,,N,,,,T,,,T,,,D*62
$GPRMB,A,,,,,,,,,,,,,D*4F
$RATTM,92,19.27,200.93,T,6.9,200.8,T,4.82,-36.22,N,,T,,121119.00,M*2D
$RATTM,100,14.02,199.88,T,0.0,294.4,T,4.18,-33.09,N,,T,,121119.00,M*15
$RATTM,01,3.47,152.97,T,1.0,273.5,T,1.83,-7.27,N,,T,,121119.00,M*2E
!AIVDO,1,1,,,18JT@h3PCjaC>5nDbHP@2;>D05Pd,0*6B
$HEHDT,358.4,T*25
$HEROT,-010.2,A*05
!AIVDO,1,1,,A,18JT@h3PCjaC>5nDbHP@2;>D00Rw,0*3E
$HEHDT,358.3,T*22
$HEROT,-010.2,A*05
$RATTM,02,12.48,301.61,T,9.2,245.8,T,12.17,5.57,N,,T,,121119.00,M*0A
$RATTM,03,8.13,309.28,T,0.5,140.3,T,6.44,12.06,N,,T,,121119.00,M*39
$IIRSA,-4.0,A,0.0,A,A*04
$WIMWV,7.8,R,15.0,M,A*1B
$RATTM,05,9.36,339.45,T,6.7,16.2,T,2.86,29.97,N,,T,,121119.00,M*0C
$HEHDT,358.3,T*22
$HEROT,-010.1,A*06
$SDDPT,220.0,0.0,500.0*50
$PJRCU,SD,220.0,0.0,500.0,,3,AFT*2E
$PJRCU,SD,,0.0,500.0FWD*19
$PJRCS,DPT,220.0,0.0,500.0,,3,AFT*7F
$GPGGA,121109.70,3606.5984,N,13001.6705,E,2,11,01,+0054,M,+025,M,07,0732*4E
$GPRMC,121109.70,A,3606.5984,N,13001.6705,E,024.2,000.7,090514,08.,W,D*29
$ERRPM,E,0,162,,A*75
$GPVTG,000.7,T,000.7,M,024.2,N,044.8,K,D*2A
$HEHDT,358.3,T*22
$HEROT,-010.1,A*06
!AIVDM,1,1,,A,15QHtH002WaBw0pDI`08Q6jF05Pd,0*69
!AIVDM,1,1,,B,15Aig:0v@09@i20DabGVE12B0<0w,0*69
!AIVDM,1,1,,B,17baOD001J9Ca6`E?kCQ814F05Pd,0*54
$HEHDT,358.2,T*23
$HEROT,-010.0,A*07
$VDVBW,022.63,,A,023.90,-000.94,V,,V,-000.94,A*5C
$VDVLW,391.14,N,92.46,N*68
$VDDBT,,f,,M,,F*2D
$VDDPT,,,*7E
$GPZDA,121111.00,09,05,2014,00,00*6E
$GPDTM,W84,,0.0,N,0.0,E,+0.0,W84*44
$GPAPB,A,A,,,N,,,,T,,,T,,,D*62
$GPRMB,A,,,,,,,,,,,,,D*4F
!AIVDM,1,1,,A,16Sf4WgP1:9ACoLDVisGLwvH287;,0*1F
!AIVDM,2,1,0,B,59NS0V02;kedDiDCJ21<D60Lhu9V222222222216B0OA95Do,0*4D
!AIVDM,2,2,0,B,0FT3j0CQp88888888888880,2*36
!AIVDM,1,1,,B,13P;>lh02?aCWKLDUBa8?6TB0PST,0*4B
$HEHDT,358.2,T*23
$HEROT,-010.0,A*07
!AIVDO,1,1,,,18JT@h3PCjaC>5nDbHi01s<F05Pd,0*69
!AIVDM,1,1,,B,4h4<iTiuqDd;;9>wo<EO`gQ00000,0*4E
$HEHDT,358.2,T*23
$HEROT,-010.0,A*07
!AIVDM,1,1,,A,16T0LIgP009@GdHDVhFP0?vIrL1<,0*0A
$IIRSA,-4.0,A,0.0,A,A*04
$WIMWV,6.0,R,14.9,M,A*1A
$HEHDT,358.1,T*20
$HEROT,-010.1,A*06
$SDDPT,220.0,0.0,500.0*50
$PJRCU,SD,220.0,0.0,500.0,,3,AFT*2E
$PJRCU,SD,,0.0,500.0FWD*19
$PJRCS,DPT,220.0,0.0,500.0,,3,AFT*7F
$GPGGA,121110.70,3606.6051,N,13001.6705,E,2,11,01,+0054,M,+025,M,07,0732*44
$ERRPM,E,0,162,,A*75
$GPRMC,121110.70,A,3606.6051,N,13001.6705,E,024.2,000.6,090514,08.,W,D*22
$GPVTG,000.6,T,000.6,M,024.2,N,044.8,K,D*2A
$HEHDT,358.1,T*20
$HEROT,-010.1,A*06
$RATTM,09,19.26,200.37,T,6.6,194.3,T,5.10,-36.14,N,,T,,121111.00,M*2D
$RATTM,11,14.02,199.28,T,0.0,344.4,T,4.04,-33.17,N,,T,,121111.00,M*28
!AIVDM,1,1,,A,16Swrug0009@GcnDVg?P09VH2D1=,0*11
!AIVDM,1,1,,B,16T03`PP00a@VmdDwD=WCgvH2D0K,0*61
$HEHDT,358.0,T*21
$HEROT,-010.2,A*05
$VDVBW,022.62,,A,023.90,-000.94,V,,V,-000.94,A*5D
$VDVLW,391.14,N,92.46,N*68
$VDDBT,,f,,M,,F*2D
$VDDPT,,,*7E
$GPZDA,121112.00,09,05,2014,00,00*6D
$GPDTM,W84,,0.0,N,0.0,E,+0.0,W84*44
$GPAPB,A,A,,,N,,,,T,,,T,,,D*62
$GPRMB,A,,,,,,,,,,,,,D*4F
$RATTM,92,19.28,200.93,T,6.8,199.3,T,4.94,-36.23,N,,T,,121121.00,M*26
$RATTM,100,14.03,199.89,T,0.0,294.1,T,4.19,-33.13,N,,T,,121121.00,M*11
$RATTM,01,3.49,153.11,T,1.0,272.3,T,1.82,-7.32,N,,T,,121121.00,M*26
$HEHDT,358.0,T*21
$HEROT,-010.3,A*04
!AIVDM,1,1,,A,16Smh4?0019@D9bDk@P51@0J25Pd,0*19
!AIVDO,1,1,,B,18JT@h3PCjaC>5nDbI1h1c<H05Pd,0*34
$HEHDT,358.0,T*21
$HEROT,-010.2,A*05
!AIVDM,1,1,,B,19NS=A001gaDnVbE>R=WgV8L0L0N,0*61
!AIVDM,1,1,,A,13Jw@T002:aBW?fD`pT0m@dF087u,0*5D
$RATTM,02,12.47,301.37,T,9.2,245.8,T,12.17,5.53,N,,T,,121121.00,M*09
$IIRSA,-4.0,A,0.0,A,A*04
$RATTM,03,8.13,309.12,T,0.5,158.0,T,6.47,11.91,N,,T,,121121.00,M*3F
$RATTM,05,9.35,339.53,T,6.4,13.1,T,3.06,29.43,N,,T,,121121.00,M*06
$HEHDT,357.9,T*27
$HEROT,-010.2,A*05
$WIMWV,8.0,R,14.9,M,A*14
$SDDPT,220.0,0.0,500.0*50
$PJRCU,SD,220.0,0.0,500.0,,3,AFT*2E
$PJRCU,SD,,0.0,500.0FWD*19
$PJRCS,DPT,220.0,0.0,500.0,,3,AFT*7F
$GPGGA,121111.70,3606.6118,N,13001.6705,E,2,11,01,+0054,M,+025,M,06,0732*48
$ERRPM,E,0,161,,A*76
$GPRMC,121111.70,A,3606.6118,N,13001.6705,E,024.2,000.5,090514,08.,W,D*2C
$GPVTG,000.5,T,000.5,M,024.2,N,044.7,K,D*25
$HEHDT,357.9,T*27
$HEROT,-010.2,A*05
$HEHDT,357.9,T*27
$HEROT,-010.3,A*04
$GPZDA,121113.00,09,05,2014,00,00*6C
$GPDTM,W84,,0.0,N,0.0,E,+0.0,W84*44
$GPAPB,A,A,,,N,,,,T,,,T,,,D*62
$GPRMB,A,,,,,,,,,,,,,D*4F
$VDVBW,022.62,,A,023.90,-000.94,V,,V,-000.94,A*5D
$VDVLW,391.14,N,92.46,N*68
$VDDBT,,f,,M,,F*2D
$VDDPT,,,*7E
$HEHDT,357.8,T*26
$HEROT,-010.2,A*05
!AIVDO,1,1,,,18JT@h3PCjaC>5lDbIBP1K<J05Pd,0*15
!AIVDM,1,1,,B,16T0`?00009@O<jD``QQ`2vL0D1>,0*2E
$HEHDT,357.8,T*26
$HEROT,-010.3,A*04
$IIRSA,-4.0,A,0.0,A,A*04
$WIMWV,8.0,R,14.8,M,A*15
$HEHDT,357.8,T*26
$HEROT,-010.3,A*04
$SDDPT,220.0,0.0,500.0*50
$PJRCU,SD,220.0,0.0,500.0,,3,AFT*2E
$PJRCU,SD,,0.0,500.0FWD*19
$PJRCS,DPT,220.0,0.0,500.0,,3,AFT*7F
$PJRCL,SD,9,V,V,V,V,V,V,V,V,V,V,V,V,V,V*69
$GPGGA,121112.70,3606.6185,N,13001.6704,E,2,11,01,+0054,M,+025,M,07,0732*4F
$GPRMC,121112.70,A,3606.6185,N,13001.6704,E,024.2,000.4,090514,08.,W,D*2B
$GPVTG,000.4,T,000.4,M,024.2,N,044.7,K,D*25
$ERRPM,E,0,162,,A*75
$HEHDT,357.7,T*29
$HEROT,-010.3,A*04
!AIVDM,1,1,,B,145=@EPP1Q9DqJ`DiHo1GgvN088f,0*1E
$RATTM,09,19.29,200.32,T,6.6,190.4,T,5.39,-35.93,N,,T,,121113.00,M*21
$RATTM,11,14.04,199.24,T,0.0,8.1,T,4.04,-33.22,N,,T,,121113.00,M*28
$HEHDT,357.7,T*29
$HEROT,-010.3,A*04
!AIVDM,1,1,,A,162??R001p9B>m<DNCo@k@`N1h8n,0*78
!AIVDM,2,1,1,B,5777Dm02BvSUI8i3J21MF0MDV1<P4r2222222216D8LG95jR,0*55
!AIVDM,2,2,1,B,0Al3j0CQsjklQ@H88888880,2*3F
!AIVDO,1,1,,,18JT@h3PCiaC>5jDbIS@1;<L05Pd,0*67
$GPZDA,121114.00,09,05,2014,00,00*6B
$GPDTM,W84,,0.0,N,0.0,E,+0.0,W84*44
$GPAPB,A,A,,,N,,,,T,,,T,,,D*62
$GPRMB,A,,,,,,,,,,,,,D*4F
$RATTM,92,19.30,200.82,T,6.8,195.5,T,5.22,-36.05,N,,T,,121123.00,M*2F
$RATTM,100,14.05,199.78,T,0.0,295.7,T,4.19,-33.17,N,,T,,121123.00,M*18
$RATTM,01,3.50,153.03,T,0.9,275.2,T,1.81,-7.40,N,,T,,121123.00,M*27
$VDVBW,022.61,,A,023.90,-000.94,V,,V,-000.94,A*5E
$VDVLW,391.14,N,92.46,N*68
$VDDBT,,f,,M,,F*2D
$VDDPT,,,*7E
!AIVDO,1,1,,A,18JT@h3PCiaC>5jDbIS@1;<L05Pd,0*26
$HEHDT,357.7,T*29
$HEROT,-010.4,A*03
$HEHDT,357.6,T*28
$HEROT,-010.3,A*04
$IIRSA,-4.0,A,0.0,A,A*04
$RATTM,02,12.47,301.10,T,9.3,245.5,T,12.17,5.45,N,,T,,121123.00,M*05
$RATTM,03,8.11,308.93,T,0.6,169.1,T,6.48,11.76,N,,T,,121123.00,M*31
$RATTM,05,9.34,339.30,T,6.5,9.6,T,3.29,29.37,N,,T,,121123.00,M*33
!AIVDM,2,1,2,A,56SwruP1voToG30`4pL`4pN0P4r0Pt00000000000pE45400,0*30
!AIVDM,2,2,2,A,00000000000000000000008,2*2E
!AIVDM,1,1,,B,16Tlvt0P009@GP>DVhL@0?vOr<18,0*2F
$HEHDT,357.6,T*28
$WIMWV,8.7,R,15.0,M,A*1B
$HEROT,-010.3,A*04
$SDDPT,220.0,0.0,500.0*50
$PJRCU,SD,220.0,0.0,500.0,,3,AFT*2E
$PJRCU,SD,,0.0,500.0FWD*19
$PJRCS,DPT,220.0,0.0,500.0,,3,AFT*7F
$GPGGA,121113.70,3606.6252,N,13001.6703,E,2,11,01,+0054,M,+025,M,07,0732*40
$ERRPM,E,0,162,,A*75
$GPRMC,121113.70,A,3606.6252,N,13001.6703,E,024.1,000.3,090514,08.,W,D*20
$GPVTG,000.3,T,000.3,M,024.1,N,044.7,K,D*26
$HEHDT,357.6,T*28
$HEROT,-010.4,A*03
!AIVDM,1,1,,A,16ShiPPP019@DmFDVww3nOvP05Pd,0*23
!AIVDM,1,1,,A,4h4<hjiuqDd;?9@mCvDT:n100000,0*5D
!AIVDM,1,1,,B,404<hjQuqDd;?9@NN0DbLhQ00000,0*70
!AIVDM,1,1,,A,16Sohv001d9AIL@Dh:g6VUFP0<15,0*31
$HEHDT,357.5,T*2B
$HEROT,-010.3,A*04
$GPZDA,121115.00,09,05,2014,00,00*6A
$GPDTM,W84,,0.0,N,0.0,E,+0.0,W84*44
$GPAPB,A,A,,,N,,,,T,,,T,,,D*62
$GPRMB,A,,,,,,,,,,,,,D*4F
$HEHDT,357.5,T*2B
$HEROT,-010.4,A*03
$VDVBW,022.61,,A,023.90,-000.94,V,,V,-000.94,A*5E
$VDVLW,391.21,N,92.46,N*6E
$VDDBT,,f,,M,,F*2D
$VDDPT,,,*7E
!AIVDO,1,1,,,18JT@h3PCiaC>5hDbIl00s<N05Pd,0*61
!AIVDM,1,1,,A,16Sm560P01a@QuRDbHdJ6p0N2H9S,0*42
!AIVDM,1,1,,A,16T8jl002FaAFd0DM97P:08>0@9V,0*49
!AIVDM,1,1,,B,16Sg:4PP0<aCGBhD`OCrlgvN20S<,0*5F
$HEHDT,357.5,T*2B
$HEROT,-010.4,A*03
$IIRSA,-4.0,A,0.0,A,A*04
$WIMWV,10.2,R,15.6,M,A*21
$HEHDT,357.4,T*2A
$HEROT,-010.4,A*03
!AIVDM,1,1,,B,16Shk70P0o9A;m8DTD37W?vP089l,0*2F
$SDDPT,220.0,0.0,500.0*50
$PJRCU,SD,220.0,0.0,500.0,,3,AFT*2E
$PJRCU,SD,,0.0,500.0FWD*19
$PJRCS,DPT,220.0,0.0,500.0,,3,AFT*7F
$GPGGA,121114.70,3606.6319,N,13001.6701,E,2,11,01,+0054,M,+025,M,08,0732*44
$GPRMC,121114.70,A,3606.6319,N,13001.6701,E,024.1,000.2,090514,08.,W,D*2A
$ERRPM,E,0,161,,A*76
$GPVTG,000.2,T,000.2,M,024.1,N,044.7,K,D*26
!AIVDM,1,1,,A,16SwpdP0009@GeHDVgJ002NP20Sl,0*4C
$HEHDT,357.4,T*2A
$HEROT,-010.4,A*03
$RATTM,09,19.31,200.41,T,6.6,190.4,T,5.40,-35.96,N,,T,,121115.00,M*21
$RATTM,11,14.05,199.27,T,0.0,25.0,T,4.04,-33.25,N,,T,,121115.00,M*15
$HEHDT,357.4,T*2A
$HEROT,-010.4,A*03
!AIVDO,1,1,,B,18JT@h3PCiaC>5fDbJ4h0c<P0@:1,0*6A
!AIVDM,1,1,,B,16T0M1PP009@H4>DVdpt4wvSrH:3,0*26
$GPZDA,121116.00,09,05,2014,00,00*69
$GPDTM,W84,,0.0,N,0.0,E,+0.0,W84*44
$GPAPB,A,A,,,N,,,,T,,,T,,,D*62
$GPRMB,A,,,,,,,,,,,,,D*4F
$RATTM,92,19.33,200.88,T,6.8,194.2,T,5.32,-36.01,N,,T,,121125.00,M*23
$RATTM,100,14.06,199.84,T,0.0,297.6,T,4.19,-33.21,N,,T,,121125.00,M*18
$RATTM,01,3.52,153.30,T,0.8,274.5,T,1.81,-7.45,N,,T,,121125.00,M*21
$HEHDT,357.3,T*2D
$HEROT,-010.4,A*03
!AIVDM,1,1,,B,144iWe001M9BWG8DUrwVwUVP0h:9,0*5D
!AIVDM,1,1,,B,144d89001m9BOIhDJ?pR>QlP05Pd,0*49
$VDVBW,022.61,,A,023.90,-000.94,V,,V,-000.94,A*5E
$VDVLW,391.21,N,92.46,N*6E
$VDDBT,,f,,M,,F*2D
$VDDPT,,,*7E
$HEHDT,357.3,T*2D
$HEROT,-010.4,A*03
$IIRSA,-4.0,A,0.0,A,A*04
$RATTM,02,12.46,301.21,T,9.3,245.5,T,12.17,5.41,N,,T,,121125.00,M*04
$RATTM,03,8.10,308.95,T,0.8,177.2,T,6.49,11.61,N,,T,,121125.00,M*35
$RATTM,05,9.32,339.50,T,6.5,9.9,T,3.27,29.37,N,,T,,121125.00,M*34
$WIMWV,8.0,R,15.9,M,A*15
$HEHDT,357.2,T*2C
$HEROT,-010.4,A*03
$SDDPT,220.0,0.0,500.0*50
$PJRCU,SD,220.0,0.0,500.0,,3,AFT*2E
$PJRCU,SD,,0.0,500.0FWD*19
$PJRCS,DPT,220.0,0.0,500.0,,3,AFT*7F
!AIVDM,1,1,,B,16ShDJ8P00a@`3VDw=suaP0F0`:I,0*37
!AIVDM,1,1,,A,16SemK0P18aA@RTDaEKeuOvR2<13,0*62
!AIVDM,1,1,,B,3815?@R001aBhM<DRFfW05VR0DhJ,0*3A
!AIVDM,1,1,,B,B6T0Vh001bDgK959o83O3w`ToP06,0*67
$GPGGA,121115.70,3606.6386,N,13001.6700,E,2,11,01,+0054,M,+025,M,07,0732*4D
$ERRPM,E,0,161,,A*76
$GPRMC,121115.70,A,3606.6386,N,13001.6700,E,024.1,000.0,090514,08.,W,D*2E
$GPVTG,000.0,T,000.0,M,024.1,N,044.7,K,D*26
$HEHDT,357.2,T*2C
$HEROT,-010.4,A*03
!AIVDO,1,1,,,18JT@h3PCiaC>5dDbJEP0;:R05Pd,0*75
$HEHDT,357.2,T*2C
$HEROT,-010.3,A*04
$GPZDA,121117.00,09,05,2014,00,00*68
$GPDTM,W84,,0.0,N,0.0,E,+0.0,W84*44
$GPAPB,A,A,,,N,,,,T,,,T,,,D*62
$GPRMB,A,,,,,,,,,,,,,D*4F
!AIVDM,1,1,,A,16Sf:DgP009@E=jDW5Hj0?vT2<10,0*10
$HEHDT,357.2,T*2C
$HEROT,-010.3,A*04
$VDVBW,022.60,,A,023.90,-000.94,V,,V,-000.94,A*5F
$VDVLW,391.21,N,92.53,N*6A
$VDDBT,,f,,M,,F*2D
$VDDPT,,,*7E
!AIVDM,1,1,,A,13P;>lh02?aCWFhDUAl`?6TN0p:l,0*4A
!AIVDM,1,1,,B,16T<5t@OiUa@V3HDvrwtg:HR2<0J,0*44
!AIVDM,1,1,,A,36UBAt50009@DN2DVsJISnKp0P00,0*41
!AIVDM,1,1,,B,16SrLn0P209CU@dDSA>bhpPP05Pd,0*6B
$HEHDT,357.1,T*2F
$HEROT,-010.3,A*04
$IIRSA,-4.0,A,0.0,A,A*04
$WIMWV,9.2,R,15.4,M,A*1B
$HEHDT,357.1,T*2F
$HEROT,-010.3,A*04
$SDDPT,220.0,0.0,500.0*50
$PJRCU,SD,220.0,0.0,500.0,,3,AFT*2E
$PJRCU,SD,,0.0,500.0FWD*19
$PJRCS,DPT,220.0,0.0,500.0,,3,AFT*7F
$GPGGA,121116.70,3606.6453,N,13001.6699,E,2,11,01,+0054,M,+025,M,07,0732*40
$ERRPM,E,0,162,,A*75
$GPRMC,121116.70,A,3606.6453,N,13001.6699,E,024.1,359.9,090514,08.,W,D*25
$GPVTG,359.9,T,359.9,M,024.1,N,044.7,K,D*26
$HEHDT,357.0,T*2E
$HEROT,-010.3,A*04
!AIVDM,1,1,,B,16U@Hn8P0t9A7knDQ2N7G?vT2p;3,0*39
!AIVDM,2,1,3,A,57baOD01vt1mQD8SF20lE99V0t<D4r22222222169`G885En,0*7B
!AIVDM,2,2,3,A,0;CRRp4UH88888888888880,2*0E
!AIVDO,1,1,,,18JT@h3PCiaC>5`DbJVN3s:T05Pd,0*31
$RATTM,09,19.32,200.27,T,6.7,187.5,T,5.61,-35.79,N,,T,,121117.00,M*24
